{
  "ALI MUHAMMAD KANOO": {
	"arabicName": "مسجد علي محمد كانو",
	"block": 103,
	"location": {
	  "lon": 50.65422057,
	  "lat": 26.24983626
	},
	"fajrIqama": 0,
	"dhuhrIqama": 0,
	"asrIqama": 0,
	"maghribIqama": 0,
	"ishaIqama": 0,
	"editDate": "2024-8-1"
  },
  "AL JASSIM": {
	"arabicName": "مسجد الجاسم",
	"block": 105,
	"location": {
	  "lon": 50.65305246,
	  "lat": 26.24304423
	},
	"fajrIqama": 0,
	"dhuhrIqama": 0,
	"asrIqama": 0,
	"maghribIqama": 0,
	"ishaIqama": 0,
	"editDate": "2024-8-1"
  },
  "AL SADAH": {
	"arabicName": "مسجد السادة",
	"block": 107,
	"location": {
	  "lon": 50.6541127,
	  "lat": 26.23815173
	},
	"fajrIqama": 0,
	"dhuhrIqama": 0,
	"asrIqama": 0,
	"maghribIqama": 0,
	"ishaIqama": 0,
	"editDate": "2024-8-1"
  },
  "HIDD SOUTH": {
	"arabicName": "جامع الحد الجنوبي",
	"block": 108,
	"location": {
	  "lon": 50.65403324,
	  "lat": 26.24067543
	},
	"fajrIqama": 0,
	"dhuhrIqama": 0,
	"asrIqama": 0,
	"maghribIqama": 0,
	"ishaIqama": 0,
	"editDate": "2024-8-1"
  },
  "AL SADAH NORTHERN": {
	"arabicName": "مسجد السادة الشمالي",
	"block": 108,
	"location": {
	  "lon": 50.65410022,
	  "lat": 26.23912118
	},
	"fajrIqama": 0,
	"dhuhrIqama": 0,
	"asrIqama": 0,
	"maghribIqama": 0,
	"ishaIqama": 0,
	"editDate": "2024-8-1"
  },
  "EQAB": {
	"arabicName": "مسجد عقاب",
	"block": 111,
	"location": {
	  "lon": 50.65169137,
	  "lat": 26.22933584
	},
	"fajrIqama": 0,
	"dhuhrIqama": 0,
	"asrIqama": 0,
	"maghribIqama": 0,
	"ishaIqama": 0,
	"editDate": "2024-8-1"
  },
  "SAAD BIN MOOAZ": {
	"arabicName": "مسجد سعد بن معاذ",
	"block": 112,
	"location": {
	  "lon": 50.65753015,
	  "lat": 26.23317851
	},
	"fajrIqama": 0,
	"dhuhrIqama": 0,
	"asrIqama": 0,
	"maghribIqama": 0,
	"ishaIqama": 0,
	"editDate": "2024-8-1"
  },
  "ALI BIN JABER AAL THANI": {
	"arabicName": "مسجد علي بن جابر آل ثاني",
	"block": 113,
	"location": {
	  "lon": 50.65173876,
	  "lat": 26.23946917
	},
	"fajrIqama": 0,
	"dhuhrIqama": 0,
	"asrIqama": 0,
	"maghribIqama": 0,
	"ishaIqama": 0,
	"editDate": "2024-8-1"
  },
  "BIN HINDI": {
	"arabicName": "مسجد بن هندي",
	"block": 203,
	"location": {
	  "lon": 50.61054695,
	  "lat": 26.25771571
	},
	"fajrIqama": 0,
	"dhuhrIqama": 0,
	"asrIqama": 0,
	"maghribIqama": 0,
	"ishaIqama": 0,
	"editDate": "2024-8-1"
  },
  "FILEFEL": {
	"arabicName": "مسجد فليفل",
	"block": 203,
	"location": {
	  "lon": 50.61189207,
	  "lat": 26.25751778
	},
	"fajrIqama": 0,
	"dhuhrIqama": 0,
	"asrIqama": 0,
	"maghribIqama": 0,
	"ishaIqama": 0,
	"editDate": "2024-8-1"
  },
  "QUBAA": {
	"arabicName": "مسجد قباء",
	"block": 203,
	"location": {
	  "lon": 50.61008377,
	  "lat": 26.2547428
	},
	"fajrIqama": 0,
	"dhuhrIqama": 0,
	"asrIqama": 0,
	"maghribIqama": 0,
	"ishaIqama": 0,
	"editDate": "2024-8-1"
  },
  "BIN SHIDDEH": {
	"arabicName": "مسجد بن شده",
	"block": 206,
	"location": {
	  "lon": 50.61462904,
	  "lat": 26.25480543
	},
	"fajrIqama": 0,
	"dhuhrIqama": 0,
	"asrIqama": 0,
	"maghribIqama": 0,
	"ishaIqama": 0,
	"editDate": "2024-8-1"
  },
  "BIN MATTER AL SHAMAIL": {
	"arabicName": "مسجد بن مطر الشمالي",
	"block": 206,
	"location": {
	  "lon": 50.61402083,
	  "lat": 26.25664045
	},
	"fajrIqama": 0,
	"dhuhrIqama": 0,
	"asrIqama": 0,
	"maghribIqama": 0,
	"ishaIqama": 0,
	"editDate": "2024-8-1"
  },
  "ALBUAINAIN": {
	"arabicName": "مسجد البوعينين",
	"block": 321,
	"location": {
	  "lon": 50.59366035,
	  "lat": 26.22624577
	},
	"fajrIqama": 0,
	"dhuhrIqama": 0,
	"asrIqama": 0,
	"maghribIqama": 0,
	"ishaIqama": 0,
	"editDate": "2024-8-1"
  },
  "AL SAGHA": {
	"arabicName": "مسجد السجى",
	"block": 604,
	"location": {
	  "lon": 50.61133575,
	  "lat": 26.17010328
	},
	"fajrIqama": 0,
	"dhuhrIqama": 0,
	"asrIqama": 0,
	"maghribIqama": 0,
	"ishaIqama": 0,
	"editDate": "2024-8-1"
  },
  "BIN DERBAS": {
	"arabicName": "مسجد بن درباس",
	"block": 208,
	"location": {
	  "lon": 50.61593813,
	  "lat": 26.25153031
	},
	"fajrIqama": 0,
	"dhuhrIqama": 0,
	"asrIqama": 0,
	"maghribIqama": 0,
	"ishaIqama": 0,
	"editDate": "2024-8-1"
  },
  "SALMAN BIN DUAIJ": {
	"arabicName": "مسجد سلمان بن دعيج",
	"block": 903,
	"location": {
	  "lon": 50.56473896,
	  "lat": 26.11911881
	},
	"fajrIqama": 0,
	"dhuhrIqama": 0,
	"asrIqama": 0,
	"maghribIqama": 0,
	"ishaIqama": 0,
	"editDate": "2024-8-1"
  },
  "ABDULJALIL": {
	"arabicName": "مسجد عبدالجليل",
	"block": 306,
	"location": {
	  "lon": 50.58391115,
	  "lat": 26.23575671
	},
	"fajrIqama": 0,
	"dhuhrIqama": 0,
	"asrIqama": 0,
	"maghribIqama": 0,
	"ishaIqama": 0,
	"editDate": "2024-8-1"
  },
  "ABDULRAHMAN ALFADEL": {
	"arabicName": "مسجد عبدالرحمن الفاضل",
	"block": 208,
	"location": {
	  "lon": 50.61509918,
	  "lat": 26.25092687
	},
	"fajrIqama": 0,
	"dhuhrIqama": 0,
	"asrIqama": 0,
	"maghribIqama": 0,
	"ishaIqama": 0,
	"editDate": "2024-8-1"
  },
  "MEJBEL": {
	"arabicName": "مسجد مجبل",
	"block": 208,
	"location": {
	  "lon": 50.61756084,
	  "lat": 26.25125584
	},
	"fajrIqama": 0,
	"dhuhrIqama": 0,
	"asrIqama": 0,
	"maghribIqama": 0,
	"ishaIqama": 0,
	"editDate": "2024-8-1"
  },
  "MUHAMMAD BIN SHAHEEN": {
	"arabicName": "مسجد محمد بن شاهين",
	"block": 208,
	"location": {
	  "lon": 50.61669339,
	  "lat": 26.25285627
	},
	"fajrIqama": 0,
	"dhuhrIqama": 0,
	"asrIqama": 0,
	"maghribIqama": 0,
	"ishaIqama": 0,
	"editDate": "2024-8-1"
  },
  "BIN NASER": {
	"arabicName": "مسجد بن نصر",
	"block": 209,
	"location": {
	  "lon": 50.61161693,
	  "lat": 26.2537257
	},
	"fajrIqama": 0,
	"dhuhrIqama": 0,
	"asrIqama": 0,
	"maghribIqama": 0,
	"ishaIqama": 0,
	"editDate": "2024-8-1"
  },
  "SEYADI": {
	"arabicName": "مسجد سيادي",
	"block": 209,
	"location": {
	  "lon": 50.61306754,
	  "lat": 26.25470674
	},
	"fajrIqama": 0,
	"dhuhrIqama": 0,
	"asrIqama": 0,
	"maghribIqama": 0,
	"ishaIqama": 0,
	"editDate": "2024-8-1"
  },
  "ABDULLAH SULTAN AL JOWDER": {
	"arabicName": "مسجد عبدالله سلطان الجودر",
	"block": 209,
	"location": {
	  "lon": 50.61184589,
	  "lat": 26.25510574
	},
	"fajrIqama": 0,
	"dhuhrIqama": 0,
	"asrIqama": 0,
	"maghribIqama": 0,
	"ishaIqama": 0,
	"editDate": "2024-8-1"
  },
  "AL QASASEEB": {
	"arabicName": "مسجد القصاصيب",
	"block": 363,
	"location": {
	  "lon": 50.55520789,
	  "lat": 26.20814329
	},
	"fajrIqama": 0,
	"dhuhrIqama": 0,
	"asrIqama": 0,
	"maghribIqama": 0,
	"ishaIqama": 0,
	"editDate": "2024-8-1"
  },
  "AHMED AL ZAYANI": {
	"arabicName": "مسجد أحمد الزياني",
	"block": 213,
	"location": {
	  "lon": 50.61110631,
	  "lat": 26.24878638
	},
	"fajrIqama": 0,
	"dhuhrIqama": 0,
	"asrIqama": 0,
	"maghribIqama": 0,
	"ishaIqama": 0,
	"editDate": "2024-8-1"
  },
  "BIN MISHARY SOUTH": {
	"arabicName": "مسجد بن مشاري الجنوبي",
	"block": 213,
	"location": {
	  "lon": 50.61231161,
	  "lat": 26.24857338
	},
	"fajrIqama": 0,
	"dhuhrIqama": 0,
	"asrIqama": 0,
	"maghribIqama": 0,
	"ishaIqama": 0,
	"editDate": "2024-8-1"
  },
  "KHALIFA AL FADEL": {
	"arabicName": "مسجد خليفة الفاضل",
	"block": 213,
	"location": {
	  "lon": 50.61488004,
	  "lat": 26.24932606
	},
	"fajrIqama": 0,
	"dhuhrIqama": 0,
	"asrIqama": 0,
	"maghribIqama": 0,
	"ishaIqama": 0,
	"editDate": "2024-8-1"
  },
  "OTHMAN BIN AFFAN": {
	"arabicName": "مسجد عثمان بن عفان",
	"block": 1056,
	"location": {
	  "lon": 50.48980037,
	  "lat": 26.04664148
	},
	"fajrIqama": 0,
	"dhuhrIqama": 0,
	"asrIqama": 0,
	"maghribIqama": 0,
	"ishaIqama": 0,
	"editDate": "2024-8-1"
  },
  "SALEH BIN KHAMIS": {
	"arabicName": "مسجد صالح بن خميس",
	"block": 216,
	"location": {
	  "lon": 50.6170009,
	  "lat": 26.24588985
	},
	"fajrIqama": 0,
	"dhuhrIqama": 0,
	"asrIqama": 0,
	"maghribIqama": 0,
	"ishaIqama": 0,
	"editDate": "2024-8-1"
  },
  "ALI BIN YOUSIF FAKHRO": {
	"arabicName": "مسجد علي بن يوسف فخرو",
	"block": 216,
	"location": {
	  "lon": 50.6132518,
	  "lat": 26.24332734
	},
	"fajrIqama": 0,
	"dhuhrIqama": 0,
	"asrIqama": 0,
	"maghribIqama": 0,
	"ishaIqama": 0,
	"editDate": "2024-8-1"
  },
  "HAMAD ALI KANOO": {
	"arabicName": "مسجد حمد علي كانو",
	"block": 223,
	"location": {
	  "lon": 50.61154715,
	  "lat": 26.26207112
	},
	"fajrIqama": 0,
	"dhuhrIqama": 0,
	"asrIqama": 0,
	"maghribIqama": 0,
	"ishaIqama": 0,
	"editDate": "2024-8-1"
  },
  "BUSAITEEN CLUB": {
	"arabicName": "مسجد نادي البسيتين",
	"block": 223,
	"location": {
	  "lon": 50.61554523,
	  "lat": 26.26733268
	},
	"fajrIqama": 0,
	"dhuhrIqama": 0,
	"asrIqama": 0,
	"maghribIqama": 0,
	"ishaIqama": 0,
	"editDate": "2024-8-1"
  },
  "TARIQ BIN ZIYAD": {
	"arabicName": "مسجد طارق بن زياد",
	"block": 225,
	"location": {
	  "lon": 50.60525605,
	  "lat": 26.26642476
	},
	"fajrIqama": 0,
	"dhuhrIqama": 0,
	"asrIqama": 0,
	"maghribIqama": 0,
	"ishaIqama": 0,
	"editDate": "2024-8-1"
  },
  "ABI HANEEFA AL NUAMAN": {
	"arabicName": "مسجد أبي حنيفة النعمان",
	"block": 226,
	"location": {
	  "lon": 50.60362536,
	  "lat": 26.27202127
	},
	"fajrIqama": 0,
	"dhuhrIqama": 0,
	"asrIqama": 0,
	"maghribIqama": 0,
	"ishaIqama": 0,
	"editDate": "2024-8-1"
  },
  "DHABYA BINT RASHID BINT MUHAMMAD": {
	"arabicName": "مسجد ظبية بنت راشد بنت محمد",
	"block": 226,
	"location": {
	  "lon": 50.61054568,
	  "lat": 26.27586231
	},
	"fajrIqama": 0,
	"dhuhrIqama": 0,
	"asrIqama": 0,
	"maghribIqama": 0,
	"ishaIqama": 0,
	"editDate": "2024-8-1"
  },
  "MARIAM JASSIM KANOO": {
	"arabicName": "مسجد مريم جاسم كانو",
	"block": 226,
	"location": {
	  "lon": 50.61075842,
	  "lat": 26.27401866
	},
	"fajrIqama": 0,
	"dhuhrIqama": 0,
	"asrIqama": 0,
	"maghribIqama": 0,
	"ishaIqama": 0,
	"editDate": "2024-8-1"
  },
  "BIN SAFAR": {
	"arabicName": "مسجد بن صفر",
	"block": 227,
	"location": {
	  "lon": 50.60742268,
	  "lat": 26.26940083
	},
	"fajrIqama": 0,
	"dhuhrIqama": 0,
	"asrIqama": 0,
	"maghribIqama": 0,
	"ishaIqama": 0,
	"editDate": "2024-8-1"
  },
  "UMMAHAT AL MOAMININ": {
	"arabicName": "مسجد أمهات المؤمنين",
	"block": 241,
	"location": {
	  "lon": 50.63688885,
	  "lat": 26.25460926
	},
	"fajrIqama": 0,
	"dhuhrIqama": 0,
	"asrIqama": 0,
	"maghribIqama": 0,
	"ishaIqama": 0,
	"editDate": "2024-8-1"
  },
  "ABDULRAHMAN EBRAHIM AL MAHMEED": {
	"arabicName": "مسجد عبدالرحمن إبراهيم المحميد",
	"block": 228,
	"location": {
	  "lon": 50.59729263,
	  "lat": 26.27556175
	},
	"fajrIqama": 0,
	"dhuhrIqama": 0,
	"asrIqama": 0,
	"maghribIqama": 0,
	"ishaIqama": 0,
	"editDate": "2024-8-1"
  },
  "ISA AL JAMEA": {
	"arabicName": "مسجد عيسى الجامع",
	"block": 228,
	"location": {
	  "lon": 50.60215509,
	  "lat": 26.28080886
	},
	"fajrIqama": 0,
	"dhuhrIqama": 0,
	"asrIqama": 0,
	"maghribIqama": 0,
	"ishaIqama": 0,
	"editDate": "2024-8-1"
  },
  "MUHAMMAD BIN YOUSIF AL HASAN": {
	"arabicName": "مسجد محمد بن يوسف الحسن",
	"block": 228,
	"location": {
	  "lon": 50.59990176,
	  "lat": 26.27584476
	},
	"fajrIqama": 0,
	"dhuhrIqama": 0,
	"asrIqama": 0,
	"maghribIqama": 0,
	"ishaIqama": 0,
	"editDate": "2024-8-1"
  },
  "MOZAH BINT JABER ALBUAINAIN": {
	"arabicName": "مسجد موزة بنت جبر البوعينين",
	"block": 228,
	"location": {
	  "lon": 50.60306011,
	  "lat": 26.27617268
	},
	"fajrIqama": 0,
	"dhuhrIqama": 0,
	"asrIqama": 0,
	"maghribIqama": 0,
	"ishaIqama": 0,
	"editDate": "2024-8-1"
  },
  "AL GHARBI": {
	"arabicName": "المسجد الغربي",
	"block": 1048,
	"location": {
	  "lon": 50.50364136,
	  "lat": 26.06841771
	},
	"fajrIqama": 0,
	"dhuhrIqama": 0,
	"asrIqama": 0,
	"maghribIqama": 0,
	"ishaIqama": 0,
	"editDate": "2024-8-1"
  },
  "AL DAIR EAST": {
	"arabicName": "مسجد الدير الشرقي",
	"block": 232,
	"location": {
	  "lon": 50.62478717,
	  "lat": 26.28468244
	},
	"fajrIqama": 0,
	"dhuhrIqama": 0,
	"asrIqama": 0,
	"maghribIqama": 0,
	"ishaIqama": 0,
	"editDate": "2024-8-1"
  },
  "FATIMAH AL ZAHRA'": {
	"arabicName": "مسجد فاطمة الزهراء",
	"block": 1042,
	"location": {
	  "lon": 50.49961866,
	  "lat": 26.07719049
	},
	"fajrIqama": 0,
	"dhuhrIqama": 0,
	"asrIqama": 0,
	"maghribIqama": 0,
	"ishaIqama": 0,
	"editDate": "2024-8-1"
  },
  "AL SADIQ": {
	"arabicName": "مسجد الصادق",
	"block": 706,
	"location": {
	  "lon": 50.52713607,
	  "lat": 26.18496274
	},
	"fajrIqama": 0,
	"dhuhrIqama": 0,
	"asrIqama": 0,
	"maghribIqama": 0,
	"ishaIqama": 0,
	"editDate": "2024-8-1"
  },
  "MAQAAM AL HASAN": {
	"arabicName": "مسجد مقام الحسن",
	"block": 235,
	"location": {
	  "lon": 50.63586576,
	  "lat": 26.28276658
	},
	"fajrIqama": 0,
	"dhuhrIqama": 0,
	"asrIqama": 0,
	"maghribIqama": 0,
	"ishaIqama": 0,
	"editDate": "2024-8-1"
  },
  "AL SAYEDAH ZAINAB": {
	"arabicName": "مسجد السيدة زينب",
	"block": 1209,
	"location": {
	  "lon": 50.49497528,
	  "lat": 26.11186202
	},
	"fajrIqama": 0,
	"dhuhrIqama": 0,
	"asrIqama": 0,
	"maghribIqama": 0,
	"ishaIqama": 0,
	"editDate": "2024-8-1"
  },
  "AL KHAIR": {
	"arabicName": "مسجد الخير",
	"block": 309,
	"location": {
	  "lon": 50.58075971,
	  "lat": 26.22125151
	},
	"fajrIqama": 0,
	"dhuhrIqama": 0,
	"asrIqama": 0,
	"maghribIqama": 0,
	"ishaIqama": 0,
	"editDate": "2024-8-1"
  },
  "OMAR BIN AL KHATTAB": {
	"arabicName": "مسجد عمر بن الخطاب",
	"block": 240,
	"location": {
	  "lon": 50.63261398,
	  "lat": 26.25728306
	},
	"fajrIqama": 0,
	"dhuhrIqama": 0,
	"asrIqama": 0,
	"maghribIqama": 0,
	"ishaIqama": 0,
	"editDate": "2024-8-1"
  },
  "MUHAMMAD JASSIM KANOO  - AL MUHARRAQ CLUB": {
	"arabicName": "مسجد محمد جاسم كانو  - مسجد نادي المحرق",
	"block": 240,
	"location": {
	  "lon": 50.6285786,
	  "lat": 26.25632549
	},
	"fajrIqama": 0,
	"dhuhrIqama": 0,
	"asrIqama": 0,
	"maghribIqama": 0,
	"ishaIqama": 0,
	"editDate": "2024-8-1"
  },
  "AL HALATEEN": {
	"arabicName": "مسجد الحالتين",
	"block": 242,
	"location": {
	  "lon": 50.63174743,
	  "lat": 26.24838008
	},
	"fajrIqama": 0,
	"dhuhrIqama": 0,
	"asrIqama": 0,
	"maghribIqama": 0,
	"ishaIqama": 0,
	"editDate": "2024-8-1"
  },
  "AL SHAIKH EBRAHIM": {
	"arabicName": "مسجد الشيخ إبراهيم",
	"block": 1019,
	"location": {
	  "lon": 50.47564672,
	  "lat": 26.12427132
	},
	"fajrIqama": 0,
	"dhuhrIqama": 0,
	"asrIqama": 0,
	"maghribIqama": 0,
	"ishaIqama": 0,
	"editDate": "2024-8-1"
  },
  "ABDULRAHMAN AL ZAYANI": {
	"arabicName": "مسجد عبدالرحمن الزياني",
	"block": 321,
	"location": {
	  "lon": 50.59109073,
	  "lat": 26.22520223
	},
	"fajrIqama": 0,
	"dhuhrIqama": 0,
	"asrIqama": 0,
	"maghribIqama": 0,
	"ishaIqama": 0,
	"editDate": "2024-8-1"
  },
  "MALEK BIN DINAAR": {
	"arabicName": "مسجد مالك بن دينار",
	"block": 243,
	"location": {
	  "lon": 50.64694793,
	  "lat": 26.25770699
	},
	"fajrIqama": 0,
	"dhuhrIqama": 0,
	"asrIqama": 0,
	"maghribIqama": 0,
	"ishaIqama": 0,
	"editDate": "2024-8-1"
  },
  "AL SUHABA": {
	"arabicName": "مسجد الصحابة",
	"block": 255,
	"location": {
	  "lon": 50.65818904,
	  "lat": 26.27450263
	},
	"fajrIqama": 0,
	"dhuhrIqama": 0,
	"asrIqama": 0,
	"maghribIqama": 0,
	"ishaIqama": 0,
	"editDate": "2024-8-1"
  },
  "ABU AUBAYDAH AL JARRAH": {
	"arabicName": "مسجد أبو عبيدة الجراح",
	"block": 255,
	"location": {
	  "lon": 50.65412252,
	  "lat": 26.27561357
	},
	"fajrIqama": 0,
	"dhuhrIqama": 0,
	"asrIqama": 0,
	"maghribIqama": 0,
	"ishaIqama": 0,
	"editDate": "2024-8-1"
  },
  "ʻAISHA ABDULLAH ALRASHEED": {
	"arabicName": "مسجد عائشة عبدالله الرشيد",
	"block": 264,
	"location": {
	  "lon": 50.63484173,
	  "lat": 26.30004832
	},
	"fajrIqama": 0,
	"dhuhrIqama": 0,
	"asrIqama": 0,
	"maghribIqama": 0,
	"ishaIqama": 0,
	"editDate": "2024-8-1"
  },
  "MALALLAH": {
	"arabicName": "مسجد مال الله",
	"block": 264,
	"location": {
	  "lon": 50.63967506,
	  "lat": 26.29759472
	},
	"fajrIqama": 0,
	"dhuhrIqama": 0,
	"asrIqama": 0,
	"maghribIqama": 0,
	"ishaIqama": 0,
	"editDate": "2024-8-1"
  },
  "MOAMEN": {
	"arabicName": "مسجد مؤمن",
	"block": 1033,
	"location": {
	  "lon": 50.48419464,
	  "lat": 26.09767223
	},
	"fajrIqama": 0,
	"dhuhrIqama": 0,
	"asrIqama": 0,
	"maghribIqama": 0,
	"ishaIqama": 0,
	"editDate": "2024-8-1"
  },
  "SHAIKH ALI BIN KHALIFA AL KHALIFA - ALMAHZAA": {
	"arabicName": "الشيخ علي بن خليفة آل خليفة - جامع المهزع",
	"block": 302,
	"location": {
	  "lon": 50.57553991,
	  "lat": 26.22881166
	},
	"fajrIqama": 0,
	"dhuhrIqama": 0,
	"asrIqama": 0,
	"maghribIqama": 0,
	"ishaIqama": 0,
	"editDate": "2024-8-1"
  },
  "AL BAWADI": {
	"arabicName": "مسجد البوادي",
	"block": 302,
	"location": {
	  "lon": 50.5737022,
	  "lat": 26.22748872
	},
	"fajrIqama": 0,
	"dhuhrIqama": 0,
	"asrIqama": 0,
	"maghribIqama": 0,
	"ishaIqama": 0,
	"editDate": "2024-8-1"
  },
  "AL ZARAREEA": {
	"arabicName": "مسجد الزراريع",
	"block": 302,
	"location": {
	  "lon": 50.57453956,
	  "lat": 26.22463449
	},
	"fajrIqama": 0,
	"dhuhrIqama": 0,
	"asrIqama": 0,
	"maghribIqama": 0,
	"ishaIqama": 0,
	"editDate": "2024-8-1"
  },
  "SAYED AL SHUHADAA  - ABU ALREESH": {
	"arabicName": "مسجد سيد الشهداء - أبو الريش",
	"block": 302,
	"location": {
	  "lon": 50.57742181,
	  "lat": 26.22520523
	},
	"fajrIqama": 0,
	"dhuhrIqama": 0,
	"asrIqama": 0,
	"maghribIqama": 0,
	"ishaIqama": 0,
	"editDate": "2024-8-1"
  },
  "AL HUSSAINI": {
	"arabicName": "مسجد الحسيني",
	"block": 342,
	"location": {
	  "lon": 50.60201525,
	  "lat": 26.20478907
	},
	"fajrIqama": 0,
	"dhuhrIqama": 0,
	"asrIqama": 0,
	"maghribIqama": 0,
	"ishaIqama": 0,
	"editDate": "2024-8-1"
  },
  "AL EMAM AL JAWAD": {
	"arabicName": "مسجد الإمام الجواد",
	"block": 1209,
	"location": {
	  "lon": 50.50356742,
	  "lat": 26.10801291
	},
	"fajrIqama": 0,
	"dhuhrIqama": 0,
	"asrIqama": 0,
	"maghribIqama": 0,
	"ishaIqama": 0,
	"editDate": "2024-8-1"
  },
  "BASHMI": {
	"arabicName": "مسجد بشمي",
	"block": 304,
	"location": {
	  "lon": 50.5785773,
	  "lat": 26.23159303
	},
	"fajrIqama": 0,
	"dhuhrIqama": 0,
	"asrIqama": 0,
	"maghribIqama": 0,
	"ishaIqama": 0,
	"editDate": "2024-8-1"
  },
  "BIN RADHI": {
	"arabicName": "مسجد بن رضي",
	"block": 304,
	"location": {
	  "lon": 50.57898527,
	  "lat": 26.23232892
	},
	"fajrIqama": 0,
	"dhuhrIqama": 0,
	"asrIqama": 0,
	"maghribIqama": 0,
	"ishaIqama": 0,
	"editDate": "2024-8-1"
  },
  "BIN AMER": {
	"arabicName": "مسجد بن عامر",
	"block": 304,
	"location": {
	  "lon": 50.57877244,
	  "lat": 26.2340036
	},
	"fajrIqama": 0,
	"dhuhrIqama": 0,
	"asrIqama": 0,
	"maghribIqama": 0,
	"ishaIqama": 0,
	"editDate": "2024-8-1"
  },
  "BOKABBABH": {
	"arabicName": "مسجد بوقبابة",
	"block": 304,
	"location": {
	  "lon": 50.57276249,
	  "lat": 26.22945734
	},
	"fajrIqama": 0,
	"dhuhrIqama": 0,
	"asrIqama": 0,
	"maghribIqama": 0,
	"ishaIqama": 0,
	"editDate": "2024-8-1"
  },
  "MULLA MUHAMMAD": {
	"arabicName": "مسجد ملا محمد",
	"block": 304,
	"location": {
	  "lon": 50.57833112,
	  "lat": 26.23334005
	},
	"fajrIqama": 0,
	"dhuhrIqama": 0,
	"asrIqama": 0,
	"maghribIqama": 0,
	"ishaIqama": 0,
	"editDate": "2024-8-1"
  },
  "AL EMAM AL MUJTABA": {
	"arabicName": "مسجد الإمام المجتبى",
	"block": 305,
	"location": {
	  "lon": 50.5829756,
	  "lat": 26.23487103
	},
	"fajrIqama": 0,
	"dhuhrIqama": 0,
	"asrIqama": 0,
	"maghribIqama": 0,
	"ishaIqama": 0,
	"editDate": "2024-8-1"
  },
  "AL AʻALI": {
	"arabicName": "مسجد العالي",
	"block": 433,
	"location": {
	  "lon": 50.53068015,
	  "lat": 26.21202359
	},
	"fajrIqama": 0,
	"dhuhrIqama": 0,
	"asrIqama": 0,
	"maghribIqama": 0,
	"ishaIqama": 0,
	"editDate": "2024-8-1"
  },
  "AL BOLOSH": {
	"arabicName": "مسجد البلوش",
	"block": 307,
	"location": {
	  "lon": 50.58849937,
	  "lat": 26.23033588
	},
	"fajrIqama": 0,
	"dhuhrIqama": 0,
	"asrIqama": 0,
	"maghribIqama": 0,
	"ishaIqama": 0,
	"editDate": "2024-8-1"
  },
  "AL HADDADAH": {
	"arabicName": "مسجد الحداده",
	"block": 307,
	"location": {
	  "lon": 50.58750971,
	  "lat": 26.23034674
	},
	"fajrIqama": 0,
	"dhuhrIqama": 0,
	"asrIqama": 0,
	"maghribIqama": 0,
	"ishaIqama": 0,
	"editDate": "2024-8-1"
  },
  "ABUL": {
	"arabicName": "مسجد أبل",
	"block": 311,
	"location": {
	  "lon": 50.57291111,
	  "lat": 26.22318897
	},
	"fajrIqama": 0,
	"dhuhrIqama": 0,
	"asrIqama": 0,
	"maghribIqama": 0,
	"ishaIqama": 0,
	"editDate": "2024-8-1"
  },
  "AHMED BIN HASAN": {
	"arabicName": "مسجد أحمد بن حسن",
	"block": 311,
	"location": {
	  "lon": 50.57142537,
	  "lat": 26.22061019
	},
	"fajrIqama": 0,
	"dhuhrIqama": 0,
	"asrIqama": 0,
	"maghribIqama": 0,
	"ishaIqama": 0,
	"editDate": "2024-8-1"
  },
  "AL EMAM AL SADIQ": {
	"arabicName": "مسجد الإمام الصادق",
	"block": 1022,
	"location": {
	  "lon": 50.4807132,
	  "lat": 26.12107564
	},
	"fajrIqama": 0,
	"dhuhrIqama": 0,
	"asrIqama": 0,
	"maghribIqama": 0,
	"ishaIqama": 0,
	"editDate": "2024-8-1"
  },
  "AL MUQBARAH": {
	"arabicName": "مسجد المقبرة",
	"block": 729,
	"location": {
	  "lon": 50.57190535,
	  "lat": 26.17190772
	},
	"fajrIqama": 0,
	"dhuhrIqama": 0,
	"asrIqama": 0,
	"maghribIqama": 0,
	"ishaIqama": 0,
	"editDate": "2024-8-1"
  },
  "CENTRAL MARKET": {
	"arabicName": "مسجد السوق المركزي",
	"block": 314,
	"location": {
	  "lon": 50.56585475,
	  "lat": 26.22797866
	},
	"fajrIqama": 0,
	"dhuhrIqama": 0,
	"asrIqama": 0,
	"maghribIqama": 0,
	"ishaIqama": 0,
	"editDate": "2024-8-1"
  },
  "AL SAYED HAIDAR": {
	"arabicName": "مسجد السيد حيدر",
	"block": 314,
	"location": {
	  "lon": 50.5680992,
	  "lat": 26.22699301
	},
	"fajrIqama": 0,
	"dhuhrIqama": 0,
	"asrIqama": 0,
	"maghribIqama": 0,
	"ishaIqama": 0,
	"editDate": "2024-8-1"
  },
  "BAIT ALQURAN": {
	"arabicName": "مسجد بيت القرآن",
	"block": 319,
	"location": {
	  "lon": 50.59212787,
	  "lat": 26.23903636
	},
	"fajrIqama": 0,
	"dhuhrIqama": 0,
	"asrIqama": 0,
	"maghribIqama": 0,
	"ishaIqama": 0,
	"editDate": "2024-8-1"
  },
  "AL SHAIKH MUSTAFA ISHAQ": {
	"arabicName": "مسجد الشيخ مصطفى إسحاق",
	"block": 321,
	"location": {
	  "lon": 50.59143078,
	  "lat": 26.22763967
	},
	"fajrIqama": 0,
	"dhuhrIqama": 0,
	"asrIqama": 0,
	"maghribIqama": 0,
	"ishaIqama": 0,
	"editDate": "2024-8-1"
  },
  "ALAWADIYAH EAST": {
	"arabicName": "مسجد العوضية الشرقي",
	"block": 323,
	"location": {
	  "lon": 50.58636185,
	  "lat": 26.23121015
	},
	"fajrIqama": 0,
	"dhuhrIqama": 0,
	"asrIqama": 0,
	"maghribIqama": 0,
	"ishaIqama": 0,
	"editDate": "2024-8-1"
  },
  "ABD AL NOOR": {
	"arabicName": "مسجد عبدالنور",
	"block": 325,
	"location": {
	  "lon": 50.59061971,
	  "lat": 26.22169181
	},
	"fajrIqama": 0,
	"dhuhrIqama": 0,
	"asrIqama": 0,
	"maghribIqama": 0,
	"ishaIqama": 0,
	"editDate": "2024-8-1"
  },
  "AL SAEED": {
	"arabicName": "مسجد السعيد",
	"block": 329,
	"location": {
	  "lon": 50.56876935,
	  "lat": 26.21394009
	},
	"fajrIqama": 0,
	"dhuhrIqama": 0,
	"asrIqama": 0,
	"maghribIqama": 0,
	"ishaIqama": 0,
	"editDate": "2024-8-1"
  },
  "ALI HUSSAIN SULAYMAN ALSENEEN": {
	"arabicName": "مسجد علي حسين سليمان السنين",
	"block": 329,
	"location": {
	  "lon": 50.56860896,
	  "lat": 26.21694946
	},
	"fajrIqama": 0,
	"dhuhrIqama": 0,
	"asrIqama": 0,
	"maghribIqama": 0,
	"ishaIqama": 0,
	"editDate": "2024-8-1"
  },
  "ABDULRAHMAN": {
	"arabicName": "مسجد عبدالرحمن",
	"block": 331,
	"location": {
	  "lon": 50.57558887,
	  "lat": 26.20631
	},
	"fajrIqama": 0,
	"dhuhrIqama": 0,
	"asrIqama": 0,
	"maghribIqama": 0,
	"ishaIqama": 0,
	"editDate": "2024-8-1"
  },
  "HAMZA": {
	"arabicName": "مسجد حمزة",
	"block": 333,
	"location": {
	  "lon": 50.5880254,
	  "lat": 26.20038718
	},
	"fajrIqama": 0,
	"dhuhrIqama": 0,
	"asrIqama": 0,
	"maghribIqama": 0,
	"ishaIqama": 0,
	"editDate": "2024-8-1"
  },
  "AL SHAIKH SALEH": {
	"arabicName": "مسجد الشيخ صالح",
	"block": 602,
	"location": {
	  "lon": 50.62520597,
	  "lat": 26.1683713
	},
	"fajrIqama": 0,
	"dhuhrIqama": 0,
	"asrIqama": 0,
	"maghribIqama": 0,
	"ishaIqama": 0,
	"editDate": "2024-8-1"
  },
  "AL BINALI": {
	"arabicName": "مسجد البنعلي",
	"block": 335,
	"location": {
	  "lon": 50.59345601,
	  "lat": 26.19975697
	},
	"fajrIqama": 0,
	"dhuhrIqama": 0,
	"asrIqama": 0,
	"maghribIqama": 0,
	"ishaIqama": 0,
	"editDate": "2024-8-1"
  },
  "KING KHALID BIN ABDULAZIZ": {
	"arabicName": "جامع الملك خالد بن عبدالعزيز",
	"block": 339,
	"location": {
	  "lon": 50.59709586,
	  "lat": 26.20072324
	},
	"fajrIqama": 0,
	"dhuhrIqama": 0,
	"asrIqama": 0,
	"maghribIqama": 0,
	"ishaIqama": 0,
	"editDate": "2024-8-1"
  },
  "ABI HURAYRAH": {
	"arabicName": "مسجد أبي هريرة",
	"block": 340,
	"location": {
	  "lon": 50.6022363,
	  "lat": 26.21257034
	},
	"fajrIqama": 0,
	"dhuhrIqama": 0,
	"asrIqama": 0,
	"maghribIqama": 0,
	"ishaIqama": 0,
	"editDate": "2024-8-1"
  },
  "AL SHAIKH JASSIM": {
	"arabicName": "مسجد الشيخ جاسم",
	"block": 304,
	"location": {
	  "lon": 50.57477621,
	  "lat": 26.23059883
	},
	"fajrIqama": 0,
	"dhuhrIqama": 0,
	"asrIqama": 0,
	"maghribIqama": 0,
	"ishaIqama": 0,
	"editDate": "2024-8-1"
  },
  "AL SHAIKH ISMAIL": {
	"arabicName": "مسجد الشيخ إسماعيل",
	"block": 514,
	"location": {
	  "lon": 50.50339459,
	  "lat": 26.23074918
	},
	"fajrIqama": 0,
	"dhuhrIqama": 0,
	"asrIqama": 0,
	"maghribIqama": 0,
	"ishaIqama": 0,
	"editDate": "2024-8-1"
  },
  "BAHRAIN BAY": {
	"arabicName": "مسجد خليج البحرين",
	"block": 346,
	"location": {
	  "lon": 50.58412593,
	  "lat": 26.248315
	},
	"fajrIqama": 0,
	"dhuhrIqama": 0,
	"asrIqama": 0,
	"maghribIqama": 0,
	"ishaIqama": 0,
	"editDate": "2024-8-1"
  },
  "SHAIKH ABU ALI": {
	"arabicName": "مسجد الشيخ أبو علي",
	"block": 353,
	"location": {
	  "lon": 50.5524428,
	  "lat": 26.22227739
	},
	"fajrIqama": 0,
	"dhuhrIqama": 0,
	"asrIqama": 0,
	"maghribIqama": 0,
	"ishaIqama": 0,
	"editDate": "2024-8-1"
  },
  "AL MASAMAH": {
	"arabicName": "مسجد المسامعة",
	"block": 353,
	"location": {
	  "lon": 50.55538407,
	  "lat": 26.22354299
	},
	"fajrIqama": 0,
	"dhuhrIqama": 0,
	"asrIqama": 0,
	"maghribIqama": 0,
	"ishaIqama": 0,
	"editDate": "2024-8-1"
  },
  "AL SAYED JAFFAR": {
	"arabicName": "مسجد السيد جعفر",
	"block": 354,
	"location": {
	  "lon": 50.55144483,
	  "lat": 26.21744934
	},
	"fajrIqama": 0,
	"dhuhrIqama": 0,
	"asrIqama": 0,
	"maghribIqama": 0,
	"ishaIqama": 0,
	"editDate": "2024-8-1"
  },
  "BAQER": {
	"arabicName": "مسجد باقر",
	"block": 354,
	"location": {
	  "lon": 50.54854891,
	  "lat": 26.21556127
	},
	"fajrIqama": 0,
	"dhuhrIqama": 0,
	"asrIqama": 0,
	"maghribIqama": 0,
	"ishaIqama": 0,
	"editDate": "2024-8-1"
  },
  "SALIHIYA EASTERN": {
	"arabicName": "مسجد الصالحية الشرقي",
	"block": 356,
	"location": {
	  "lon": 50.56053039,
	  "lat": 26.21405725
	},
	"fajrIqama": 0,
	"dhuhrIqama": 0,
	"asrIqama": 0,
	"maghribIqama": 0,
	"ishaIqama": 0,
	"editDate": "2024-8-1"
  },
  "ABU KHAFIR": {
	"arabicName": "مسجد أبو غفير",
	"block": 361,
	"location": {
	  "lon": 50.55815231,
	  "lat": 26.20920102
	},
	"fajrIqama": 0,
	"dhuhrIqama": 0,
	"asrIqama": 0,
	"maghribIqama": 0,
	"ishaIqama": 0,
	"editDate": "2024-8-1"
  },
  "AL SAYED YOUSIF": {
	"arabicName": "مسجد السيد يوسف",
	"block": 362,
	"location": {
	  "lon": 50.55332489,
	  "lat": 26.20443856
	},
	"fajrIqama": 0,
	"dhuhrIqama": 0,
	"asrIqama": 0,
	"maghribIqama": 0,
	"ishaIqama": 0,
	"editDate": "2024-8-1"
  },
  "AL SAYED EBRAHIM": {
	"arabicName": "مسجد السيد إبراهيم",
	"block": 406,
	"location": {
	  "lon": 50.54418208,
	  "lat": 26.22400681
	},
	"fajrIqama": 0,
	"dhuhrIqama": 0,
	"asrIqama": 0,
	"maghribIqama": 0,
	"ishaIqama": 0,
	"editDate": "2024-8-1"
  },
  "AL RAMLAH": {
	"arabicName": "مسجد الرملة",
	"block": 364,
	"location": {
	  "lon": 50.5545275,
	  "lat": 26.2037853
	},
	"fajrIqama": 0,
	"dhuhrIqama": 0,
	"asrIqama": 0,
	"maghribIqama": 0,
	"ishaIqama": 0,
	"editDate": "2024-8-1"
  },
  "SHIBAN": {
	"arabicName": "مسجد شيبان",
	"block": 365,
	"location": {
	  "lon": 50.55200689,
	  "lat": 26.20408408
	},
	"fajrIqama": 0,
	"dhuhrIqama": 0,
	"asrIqama": 0,
	"maghribIqama": 0,
	"ishaIqama": 0,
	"editDate": "2024-8-1"
  },
  "SALAH ALDIN": {
	"arabicName": "مسجد صلاح الدين",
	"block": 925,
	"location": {
	  "lon": 50.57240578,
	  "lat": 26.1296307
	},
	"fajrIqama": 0,
	"dhuhrIqama": 0,
	"asrIqama": 0,
	"maghribIqama": 0,
	"ishaIqama": 0,
	"editDate": "2024-8-1"
  },
  "AL AIN  - ABU BHAM": {
	"arabicName": "مسجد العين - أبو بهام",
	"block": 366,
	"location": {
	  "lon": 50.54419868,
	  "lat": 26.19894786
	},
	"fajrIqama": 0,
	"dhuhrIqama": 0,
	"asrIqama": 0,
	"maghribIqama": 0,
	"ishaIqama": 0,
	"editDate": "2024-8-1"
  },
  "ABU EBHAM": {
	"arabicName": "مسجد أبو ابهام",
	"block": 367,
	"location": {
	  "lon": 50.54135883,
	  "lat": 26.20582928
	},
	"fajrIqama": 0,
	"dhuhrIqama": 0,
	"asrIqama": 0,
	"maghribIqama": 0,
	"ishaIqama": 0,
	"editDate": "2024-8-1"
  },
  "ABU ROWEEN WESTERN": {
	"arabicName": "مسجد أبو روين الغربي",
	"block": 368,
	"location": {
	  "lon": 50.5355821,
	  "lat": 26.20076655
	},
	"fajrIqama": 0,
	"dhuhrIqama": 0,
	"asrIqama": 0,
	"maghribIqama": 0,
	"ishaIqama": 0,
	"editDate": "2024-8-1"
  },
  "AL GIBBAH": {
	"arabicName": "مسجد القبة",
	"block": 382,
	"location": {
	  "lon": 50.58161623,
	  "lat": 26.18039242
	},
	"fajrIqama": 0,
	"dhuhrIqama": 0,
	"asrIqama": 0,
	"maghribIqama": 0,
	"ishaIqama": 0,
	"editDate": "2024-8-1"
  },
  "AL NABIH SALEH": {
	"arabicName": "مسجد النبيه صالح",
	"block": 382,
	"location": {
	  "lon": 50.58101298,
	  "lat": 26.17891862
	},
	"fajrIqama": 0,
	"dhuhrIqama": 0,
	"asrIqama": 0,
	"maghribIqama": 0,
	"ishaIqama": 0,
	"editDate": "2024-8-1"
  },
  "AL SAYED FALAH": {
	"arabicName": "مسجد السيد فلاح",
	"block": 404,
	"location": {
	  "lon": 50.54634886,
	  "lat": 26.22419375
	},
	"fajrIqama": 0,
	"dhuhrIqama": 0,
	"asrIqama": 0,
	"maghribIqama": 0,
	"ishaIqama": 0,
	"editDate": "2024-8-1"
  },
  "HARBA": {
	"arabicName": "مسجد حربه",
	"block": 411,
	"location": {
	  "lon": 50.53979452,
	  "lat": 26.21310132
	},
	"fajrIqama": 0,
	"dhuhrIqama": 0,
	"asrIqama": 0,
	"maghribIqama": 0,
	"ishaIqama": 0,
	"editDate": "2024-8-1"
  },
  "AL TAWHEED": {
	"arabicName": "جامع التوحيد",
	"block": 333,
	"location": {
	  "lon": 50.58389728,
	  "lat": 26.20269971
	},
	"fajrIqama": 0,
	"dhuhrIqama": 0,
	"asrIqama": 0,
	"maghribIqama": 0,
	"ishaIqama": 0,
	"editDate": "2024-8-1"
  },
  "AL EMAM ALI": {
	"arabicName": "مسجد الإمام علي",
	"block": 743,
	"location": {
	  "lon": 50.58788179,
	  "lat": 26.1508364
	},
	"fajrIqama": 0,
	"dhuhrIqama": 0,
	"asrIqama": 0,
	"maghribIqama": 0,
	"ishaIqama": 0,
	"editDate": "2024-8-1"
  },
  "ALHAJ MAHDI AL TRANJAH": {
	"arabicName": "مسجد الحاج مهدي الترانجه",
	"block": 419,
	"location": {
	  "lon": 50.54278703,
	  "lat": 26.21239925
	},
	"fajrIqama": 0,
	"dhuhrIqama": 0,
	"asrIqama": 0,
	"maghribIqama": 0,
	"ishaIqama": 0,
	"editDate": "2024-8-1"
  },
  "BINT YAHYA": {
	"arabicName": "مسجد بنت يحيى",
	"block": 421,
	"location": {
	  "lon": 50.54090982,
	  "lat": 26.21762292
	},
	"fajrIqama": 0,
	"dhuhrIqama": 0,
	"asrIqama": 0,
	"maghribIqama": 0,
	"ishaIqama": 0,
	"editDate": "2024-8-1"
  },
  "AL JAMEA": {
	"arabicName": "المسجد الجامع",
	"block": 606,
	"location": {
	  "lon": 50.608376,
	  "lat": 26.16046837
	},
	"fajrIqama": 0,
	"dhuhrIqama": 0,
	"asrIqama": 0,
	"maghribIqama": 0,
	"ishaIqama": 0,
	"editDate": "2024-8-1"
  },
  "AL SHAJARA": {
	"arabicName": "مسجد الشجرة",
	"block": 423,
	"location": {
	  "lon": 50.53761061,
	  "lat": 26.21726394
	},
	"fajrIqama": 0,
	"dhuhrIqama": 0,
	"asrIqama": 0,
	"maghribIqama": 0,
	"ishaIqama": 0,
	"editDate": "2024-8-1"
  },
  "SHAIKH DAWOOD": {
	"arabicName": "مسجد الشيخ داوود",
	"block": 423,
	"location": {
	  "lon": 50.53759424,
	  "lat": 26.2179102
	},
	"fajrIqama": 0,
	"dhuhrIqama": 0,
	"asrIqama": 0,
	"maghribIqama": 0,
	"ishaIqama": 0,
	"editDate": "2024-8-1"
  },
  "AL MADARES ALSHARQI": {
	"arabicName": "مسجد المدارس الشرقي",
	"block": 365,
	"location": {
	  "lon": 50.55119191,
	  "lat": 26.20310661
	},
	"fajrIqama": 0,
	"dhuhrIqama": 0,
	"asrIqama": 0,
	"maghribIqama": 0,
	"ishaIqama": 0,
	"editDate": "2024-8-1"
  },
  "AL SHAMALI": {
	"arabicName": "المسجد الشمالي",
	"block": 644,
	"location": {
	  "lon": 50.59899985,
	  "lat": 26.13643355
	},
	"fajrIqama": 0,
	"dhuhrIqama": 0,
	"asrIqama": 0,
	"maghribIqama": 0,
	"ishaIqama": 0,
	"editDate": "2024-8-1"
  },
  "AHMED HASAAN HAMADA": {
	"arabicName": "مسجد أحمد حسان حماده",
	"block": 425,
	"location": {
	  "lon": 50.53660249,
	  "lat": 26.21528014
	},
	"fajrIqama": 0,
	"dhuhrIqama": 0,
	"asrIqama": 0,
	"maghribIqama": 0,
	"ishaIqama": 0,
	"editDate": "2024-8-1"
  },
  "AL SEEF": {
	"arabicName": "مسجد السيف",
	"block": 402,
	"location": {
	  "lon": 50.5480249,
	  "lat": 26.22395732
	},
	"fajrIqama": 0,
	"dhuhrIqama": 0,
	"asrIqama": 0,
	"maghribIqama": 0,
	"ishaIqama": 0,
	"editDate": "2024-8-1"
  },
  "AL SHAIKH LAYTH AL ALAWIYAH": {
	"arabicName": "مسجد الشيخ ليث العلوية",
	"block": 431,
	"location": {
	  "lon": 50.53143176,
	  "lat": 26.21612467
	},
	"fajrIqama": 0,
	"dhuhrIqama": 0,
	"asrIqama": 0,
	"maghribIqama": 0,
	"ishaIqama": 0,
	"editDate": "2024-8-1"
  },
  "AL DARWISH": {
	"arabicName": "مسجد الدرويش",
	"block": 433,
	"location": {
	  "lon": 50.5338658,
	  "lat": 26.21493443
	},
	"fajrIqama": 0,
	"dhuhrIqama": 0,
	"asrIqama": 0,
	"maghribIqama": 0,
	"ishaIqama": 0,
	"editDate": "2024-8-1"
  },
  "ABDUL ALKAREEM": {
	"arabicName": "مسجد عبدالكريم",
	"block": 434,
	"location": {
	  "lon": 50.53202128,
	  "lat": 26.23034961
	},
	"fajrIqama": 0,
	"dhuhrIqama": 0,
	"asrIqama": 0,
	"maghribIqama": 0,
	"ishaIqama": 0,
	"editDate": "2024-8-1"
  },
  "AL GHALAH": {
	"arabicName": "مسجد القلعة",
	"block": 438,
	"location": {
	  "lon": 50.52086835,
	  "lat": 26.23057182
	},
	"fajrIqama": 0,
	"dhuhrIqama": 0,
	"asrIqama": 0,
	"maghribIqama": 0,
	"ishaIqama": 0,
	"editDate": "2024-8-1"
  },
  "ABD AL SALEH": {
	"arabicName": "مسجد عبد الصالح",
	"block": 609,
	"location": {
	  "lon": 50.62640289,
	  "lat": 26.16200152
	},
	"fajrIqama": 0,
	"dhuhrIqama": 0,
	"asrIqama": 0,
	"maghribIqama": 0,
	"ishaIqama": 0,
	"editDate": "2024-8-1"
  },
  "AL BAYAN  - AL MUQBARAH": {
	"arabicName": "مسجد البيان - المقبرة",
	"block": 444,
	"location": {
	  "lon": 50.51586502,
	  "lat": 26.22688593
	},
	"fajrIqama": 0,
	"dhuhrIqama": 0,
	"asrIqama": 0,
	"maghribIqama": 0,
	"ishaIqama": 0,
	"editDate": "2024-8-1"
  },
  "AL SHAIKH ISA": {
	"arabicName": "مسجد الشيخ عيسى",
	"block": 740,
	"location": {
	  "lon": 50.51817467,
	  "lat": 26.16068299
	},
	"fajrIqama": 0,
	"dhuhrIqama": 0,
	"asrIqama": 0,
	"maghribIqama": 0,
	"ishaIqama": 0,
	"editDate": "2024-8-1"
  },
  "AL FATAWAT": {
	"arabicName": "مسجد الفتوات",
	"block": 444,
	"location": {
	  "lon": 50.51874973,
	  "lat": 26.22609346
	},
	"fajrIqama": 0,
	"dhuhrIqama": 0,
	"asrIqama": 0,
	"maghribIqama": 0,
	"ishaIqama": 0,
	"editDate": "2024-8-1"
  },
  "SHAIKH HAMAAD": {
	"arabicName": "مسجد الشيخ حماد",
	"block": 450,
	"location": {
	  "lon": 50.51717166,
	  "lat": 26.21854001
	},
	"fajrIqama": 0,
	"dhuhrIqama": 0,
	"asrIqama": 0,
	"maghribIqama": 0,
	"ishaIqama": 0,
	"editDate": "2024-8-1"
  },
  "SHAIKH ABDULLAH AL AMMAR": {
	"arabicName": "مسجد الشيخ عبدالله العمار",
	"block": 450,
	"location": {
	  "lon": 50.51867189,
	  "lat": 26.2240609
	},
	"fajrIqama": 0,
	"dhuhrIqama": 0,
	"asrIqama": 0,
	"maghribIqama": 0,
	"ishaIqama": 0,
	"editDate": "2024-8-1"
  },
  "AL SHAIKH ABDULLAH": {
	"arabicName": "مسجد الشيخ عبدالله",
	"block": 450,
	"location": {
	  "lon": 50.5147912,
	  "lat": 26.2208146
	},
	"fajrIqama": 0,
	"dhuhrIqama": 0,
	"asrIqama": 0,
	"maghribIqama": 0,
	"ishaIqama": 0,
	"editDate": "2024-8-1"
  },
  "AL SAYED MUHAMMAD": {
	"arabicName": "مسجد السيد محمد",
	"block": 707,
	"location": {
	  "lon": 50.54944668,
	  "lat": 26.18727978
	},
	"fajrIqama": 0,
	"dhuhrIqama": 0,
	"asrIqama": 0,
	"maghribIqama": 0,
	"ishaIqama": 0,
	"editDate": "2024-8-1"
  },
  "AHMED HASAAN ABBAS": {
	"arabicName": "مسجد أحمد حسان عباس",
	"block": 454,
	"location": {
	  "lon": 50.50970655,
	  "lat": 26.22736598
	},
	"fajrIqama": 0,
	"dhuhrIqama": 0,
	"asrIqama": 0,
	"maghribIqama": 0,
	"ishaIqama": 0,
	"editDate": "2024-8-1"
  },
  "SHAIKH RASHID": {
	"arabicName": "مسجد الشيخ راشد",
	"block": 302,
	"location": {
	  "lon": 50.57354093,
	  "lat": 26.22851046
	},
	"fajrIqama": 0,
	"dhuhrIqama": 0,
	"asrIqama": 0,
	"maghribIqama": 0,
	"ishaIqama": 0,
	"editDate": "2024-8-1"
  },
  "AL SHAIKH ZAID": {
	"arabicName": "مسجد الشيخ زيد",
	"block": 460,
	"location": {
	  "lon": 50.5080864,
	  "lat": 26.2300781
	},
	"fajrIqama": 0,
	"dhuhrIqama": 0,
	"asrIqama": 0,
	"maghribIqama": 0,
	"ishaIqama": 0,
	"editDate": "2024-8-1"
  },
  "AL EMAM AL HASAN": {
	"arabicName": "مسجد الإمام الحسن",
	"block": 734,
	"location": {
	  "lon": 50.52011547,
	  "lat": 26.15241113
	},
	"fajrIqama": 0,
	"dhuhrIqama": 0,
	"asrIqama": 0,
	"maghribIqama": 0,
	"ishaIqama": 0,
	"editDate": "2024-8-1"
  },
  "AL JADEED AL SHARQI": {
	"arabicName": "مسجد الجديد الشرقي",
	"block": 469,
	"location": {
	  "lon": 50.50916436,
	  "lat": 26.2172233
	},
	"fajrIqama": 0,
	"dhuhrIqama": 0,
	"asrIqama": 0,
	"maghribIqama": 0,
	"ishaIqama": 0,
	"editDate": "2024-8-1"
  },
  "BAARAK ALLAAH": {
	"arabicName": "مسجد بارك الله",
	"block": 471,
	"location": {
	  "lon": 50.50639606,
	  "lat": 26.21972855
	},
	"fajrIqama": 0,
	"dhuhrIqama": 0,
	"asrIqama": 0,
	"maghribIqama": 0,
	"ishaIqama": 0,
	"editDate": "2024-8-1"
  },
  "AL JUFFAIRY": {
	"arabicName": "مسجد الجفيري",
	"block": 608,
	"location": {
	  "lon": 50.61633057,
	  "lat": 26.16042917
	},
	"fajrIqama": 0,
	"dhuhrIqama": 0,
	"asrIqama": 0,
	"maghribIqama": 0,
	"ishaIqama": 0,
	"editDate": "2024-8-1"
  },
  "HABIB ALSAGHEER": {
	"arabicName": "مسجد حبيب الصغير",
	"block": 479,
	"location": {
	  "lon": 50.50596045,
	  "lat": 26.2132092
	},
	"fajrIqama": 0,
	"dhuhrIqama": 0,
	"asrIqama": 0,
	"maghribIqama": 0,
	"ishaIqama": 0,
	"editDate": "2024-8-1"
  },
  "MUHAMMAD YOUSIF ALASFOOR": {
	"arabicName": "مسجد محمد يوسف العصفور",
	"block": 479,
	"location": {
	  "lon": 50.50609877,
	  "lat": 26.21103767
	},
	"fajrIqama": 0,
	"dhuhrIqama": 0,
	"asrIqama": 0,
	"maghribIqama": 0,
	"ishaIqama": 0,
	"editDate": "2024-8-1"
  },
  "AL SHAIKH ALI ALJANOOBI": {
	"arabicName": "مسجد الشيخ علي الجنوبي",
	"block": 456,
	"location": {
	  "lon": 50.50845935,
	  "lat": 26.22653274
	},
	"fajrIqama": 0,
	"dhuhrIqama": 0,
	"asrIqama": 0,
	"maghribIqama": 0,
	"ishaIqama": 0,
	"editDate": "2024-8-1"
  },
  "SHAIKH MANSOOR": {
	"arabicName": "مسجد الشيخ منصور",
	"block": 514,
	"location": {
	  "lon": 50.50162156,
	  "lat": 26.23051277
	},
	"fajrIqama": 0,
	"dhuhrIqama": 0,
	"asrIqama": 0,
	"maghribIqama": 0,
	"ishaIqama": 0,
	"editDate": "2024-8-1"
  },
  "MAQABAH AL SHAMALI": {
	"arabicName": "جامع مقابة الشمالي",
	"block": 515,
	"location": {
	  "lon": 50.48427736,
	  "lat": 26.2126197
	},
	"fajrIqama": 0,
	"dhuhrIqama": 0,
	"asrIqama": 0,
	"maghribIqama": 0,
	"ishaIqama": 0,
	"editDate": "2024-8-1"
  },
  "AL SHAIKH ALI AL KHUDHER": {
	"arabicName": "مسجد الشيخ علي الخضر",
	"block": 518,
	"location": {
	  "lon": 50.48219476,
	  "lat": 26.22888879
	},
	"fajrIqama": 0,
	"dhuhrIqama": 0,
	"asrIqama": 0,
	"maghribIqama": 0,
	"ishaIqama": 0,
	"editDate": "2024-8-1"
  },
  "AUBAYD AL SALAH": {
	"arabicName": "مسجد عبيد الصلاح",
	"block": 521,
	"location": {
	  "lon": 50.48891847,
	  "lat": 26.19196868
	},
	"fajrIqama": 0,
	"dhuhrIqama": 0,
	"asrIqama": 0,
	"maghribIqama": 0,
	"ishaIqama": 0,
	"editDate": "2024-8-1"
  },
  "DAWAALI AL BADAWI": {
	"arabicName": "مسجد دوالي البدوي",
	"block": 525,
	"location": {
	  "lon": 50.48986367,
	  "lat": 26.19463482
	},
	"fajrIqama": 0,
	"dhuhrIqama": 0,
	"asrIqama": 0,
	"maghribIqama": 0,
	"ishaIqama": 0,
	"editDate": "2024-8-1"
  },
  "AL SHAIKH KHALAF": {
	"arabicName": "مسجد الشيخ خلف",
	"block": 509,
	"location": {
	  "lon": 50.48882176,
	  "lat": 26.21189399
	},
	"fajrIqama": 0,
	"dhuhrIqama": 0,
	"asrIqama": 0,
	"maghribIqama": 0,
	"ishaIqama": 0,
	"editDate": "2024-8-1"
  },
  "SAR ISLAMIC": {
	"arabicName": "مسجد سار الإسلامي",
	"block": 529,
	"location": {
	  "lon": 50.48041965,
	  "lat": 26.21192995
	},
	"fajrIqama": 0,
	"dhuhrIqama": 0,
	"asrIqama": 0,
	"maghribIqama": 0,
	"ishaIqama": 0,
	"editDate": "2024-8-1"
  },
  "AL SHAIKH DARWISH": {
	"arabicName": "مسجد الشيخ درويش",
	"block": 412,
	"location": {
	  "lon": 50.53766401,
	  "lat": 26.22535111
	},
	"fajrIqama": 0,
	"dhuhrIqama": 0,
	"asrIqama": 0,
	"maghribIqama": 0,
	"ishaIqama": 0,
	"editDate": "2024-8-1"
  },
  "AL SHAIKH FARAJ": {
	"arabicName": "مسجد الشيخ فرج",
	"block": 565,
	"location": {
	  "lon": 50.46200984,
	  "lat": 26.18862574
	},
	"fajrIqama": 0,
	"dhuhrIqama": 0,
	"asrIqama": 0,
	"maghribIqama": 0,
	"ishaIqama": 0,
	"editDate": "2024-8-1"
  },
  "AL WASTI": {
	"arabicName": "مسجد الوسطي",
	"block": 1042,
	"location": {
	  "lon": 50.4998484,
	  "lat": 26.07512497
	},
	"fajrIqama": 0,
	"dhuhrIqama": 0,
	"asrIqama": 0,
	"maghribIqama": 0,
	"ishaIqama": 0,
	"editDate": "2024-8-1"
  },
  "AL EMAM ALMAHDI": {
	"arabicName": "مسجد الإمام المهدي",
	"block": 334,
	"location": {
	  "lon": 50.58371674,
	  "lat": 26.21217251
	},
	"fajrIqama": 0,
	"dhuhrIqama": 0,
	"asrIqama": 0,
	"maghribIqama": 0,
	"ishaIqama": 0,
	"editDate": "2024-8-1"
  },
  "AL AMAMRAH": {
	"arabicName": "مسجد العمامره",
	"block": 550,
	"location": {
	  "lon": 50.45215333,
	  "lat": 26.21710865
	},
	"fajrIqama": 0,
	"dhuhrIqama": 0,
	"asrIqama": 0,
	"maghribIqama": 0,
	"ishaIqama": 0,
	"editDate": "2024-8-1"
  },
  "SHAIKH EID ALMADANI": {
	"arabicName": "مسجد شيخ عيد المدني",
	"block": 551,
	"location": {
	  "lon": 50.46530393,
	  "lat": 26.19605753
	},
	"fajrIqama": 0,
	"dhuhrIqama": 0,
	"asrIqama": 0,
	"maghribIqama": 0,
	"ishaIqama": 0,
	"editDate": "2024-8-1"
  },
  "SOUTHERN  - BUDAIYA": {
	"arabicName": "جامع الجنوبية - البديع",
	"block": 555,
	"location": {
	  "lon": 50.45001282,
	  "lat": 26.20822618
	},
	"fajrIqama": 0,
	"dhuhrIqama": 0,
	"asrIqama": 0,
	"maghribIqama": 0,
	"ishaIqama": 0,
	"editDate": "2024-8-1"
  },
  "BUDAIYA SOUTH  - ANAS BIN MALEK": {
	"arabicName": "مسجد جنوب البديع - أنس بن مالك",
	"block": 555,
	"location": {
	  "lon": 50.45132259,
	  "lat": 26.20595401
	},
	"fajrIqama": 0,
	"dhuhrIqama": 0,
	"asrIqama": 0,
	"maghribIqama": 0,
	"ishaIqama": 0,
	"editDate": "2024-8-1"
  },
  "SHAIKH AL ABD AL SALEH": {
	"arabicName": "مسجد الشيخ العبد الصالح",
	"block": 526,
	"location": {
	  "lon": 50.48090566,
	  "lat": 26.22891222
	},
	"fajrIqama": 0,
	"dhuhrIqama": 0,
	"asrIqama": 0,
	"maghribIqama": 0,
	"ishaIqama": 0,
	"editDate": "2024-8-1"
  },
  "MAHFOODAH SAEED AL ZAYANI": {
	"arabicName": "جامع محفوظة سعيد الزياني",
	"block": 575,
	"location": {
	  "lon": 50.48154342,
	  "lat": 26.18594333
	},
	"fajrIqama": 0,
	"dhuhrIqama": 0,
	"asrIqama": 0,
	"maghribIqama": 0,
	"ishaIqama": 0,
	"editDate": "2024-8-1"
  },
  "KHALIFA AHMED KHALIFA ALDAHRANI": {
	"arabicName": "مسجد خليفة أحمد خليفة الظهراني",
	"block": 577,
	"location": {
	  "lon": 50.46994909,
	  "lat": 26.17409346
	},
	"fajrIqama": 0,
	"dhuhrIqama": 0,
	"asrIqama": 0,
	"maghribIqama": 0,
	"ishaIqama": 0,
	"editDate": "2024-8-1"
  },
  "AL HALAH": {
	"arabicName": "مسجد الحالة",
	"block": 216,
	"location": {
	  "lon": 50.61520304,
	  "lat": 26.24681526
	},
	"fajrIqama": 0,
	"dhuhrIqama": 0,
	"asrIqama": 0,
	"maghribIqama": 0,
	"ishaIqama": 0,
	"editDate": "2024-8-1"
  },
  "AL SHAKER": {
	"arabicName": "مسجد الشاكر",
	"block": 602,
	"location": {
	  "lon": 50.6263905,
	  "lat": 26.16648623
	},
	"fajrIqama": 0,
	"dhuhrIqama": 0,
	"asrIqama": 0,
	"maghribIqama": 0,
	"ishaIqama": 0,
	"editDate": "2024-8-1"
  },
  "FATIMAH": {
	"arabicName": "مسجد فاطمة",
	"block": 809,
	"location": {
	  "lon": 50.55233797,
	  "lat": 26.1683641
	},
	"fajrIqama": 0,
	"dhuhrIqama": 0,
	"asrIqama": 0,
	"maghribIqama": 0,
	"ishaIqama": 0,
	"editDate": "2024-8-1"
  },
  "AL SAYED ADNAN ALWASTI": {
	"arabicName": "مسجد السيد عدنان الوسطي",
	"block": 606,
	"location": {
	  "lon": 50.609867,
	  "lat": 26.15962121
	},
	"fajrIqama": 0,
	"dhuhrIqama": 0,
	"asrIqama": 0,
	"maghribIqama": 0,
	"ishaIqama": 0,
	"editDate": "2024-8-1"
  },
  "AL SHAIKH AHMED": {
	"arabicName": "مسجد الشيخ أحمد",
	"block": 633,
	"location": {
	  "lon": 50.61560944,
	  "lat": 26.1359514
	},
	"fajrIqama": 0,
	"dhuhrIqama": 0,
	"asrIqama": 0,
	"maghribIqama": 0,
	"ishaIqama": 0,
	"editDate": "2024-8-1"
  },
  "SHAIKH MUHAMMAD ALI": {
	"arabicName": "مسجد الشيخ محمد علي",
	"block": 606,
	"location": {
	  "lon": 50.6085576,
	  "lat": 26.16188914
	},
	"fajrIqama": 0,
	"dhuhrIqama": 0,
	"asrIqama": 0,
	"maghribIqama": 0,
	"ishaIqama": 0,
	"editDate": "2024-8-1"
  },
  "SHAIKH ʻAZIZ": {
	"arabicName": "مسجد الشيخ عزيز",
	"block": 608,
	"location": {
	  "lon": 50.61773174,
	  "lat": 26.15516943
	},
	"fajrIqama": 0,
	"dhuhrIqama": 0,
	"asrIqama": 0,
	"maghribIqama": 0,
	"ishaIqama": 0,
	"editDate": "2024-8-1"
  },
  "ALGHADEER": {
	"arabicName": "مسجد الغدير",
	"block": 435,
	"location": {
	  "lon": 50.52842389,
	  "lat": 26.21081701
	},
	"fajrIqama": 0,
	"dhuhrIqama": 0,
	"asrIqama": 0,
	"maghribIqama": 0,
	"ishaIqama": 0,
	"editDate": "2024-8-1"
  },
  "SHAIKH ABBAS": {
	"arabicName": "مسجد الشيخ عباس",
	"block": 609,
	"location": {
	  "lon": 50.62554241,
	  "lat": 26.15903366
	},
	"fajrIqama": 0,
	"dhuhrIqama": 0,
	"asrIqama": 0,
	"maghribIqama": 0,
	"ishaIqama": 0,
	"editDate": "2024-8-1"
  },
  "SHAIKH MUHAMMAD ALWESTI": {
	"arabicName": "مسجد الشيخ محمد الوسطي",
	"block": 609,
	"location": {
	  "lon": 50.62682151,
	  "lat": 26.1642563
	},
	"fajrIqama": 0,
	"dhuhrIqama": 0,
	"asrIqama": 0,
	"maghribIqama": 0,
	"ishaIqama": 0,
	"editDate": "2024-8-1"
  },
  "AL EMAM MUHAMMAD ALBAQER": {
	"arabicName": "مسجد الإمام محمد الباقر",
	"block": 623,
	"location": {
	  "lon": 50.61233286,
	  "lat": 26.13949449
	},
	"fajrIqama": 0,
	"dhuhrIqama": 0,
	"asrIqama": 0,
	"maghribIqama": 0,
	"ishaIqama": 0,
	"editDate": "2024-8-1"
  },
  "SHAIKH SAHLAN": {
	"arabicName": "مسجد الشيخ سهلان",
	"block": 623,
	"location": {
	  "lon": 50.61016188,
	  "lat": 26.14316765
	},
	"fajrIqama": 0,
	"dhuhrIqama": 0,
	"asrIqama": 0,
	"maghribIqama": 0,
	"ishaIqama": 0,
	"editDate": "2024-8-1"
  },
  "WESTERN AL AKR": {
	"arabicName": "مسجد العكر الغربي",
	"block": 623,
	"location": {
	  "lon": 50.61038072,
	  "lat": 26.13863246
	},
	"fajrIqama": 0,
	"dhuhrIqama": 0,
	"asrIqama": 0,
	"maghribIqama": 0,
	"ishaIqama": 0,
	"editDate": "2024-8-1"
  },
  "AIN SAHLAN": {
	"arabicName": "مسجد عين سهلان",
	"block": 623,
	"location": {
	  "lon": 50.60983715,
	  "lat": 26.14084722
	},
	"fajrIqama": 0,
	"dhuhrIqama": 0,
	"asrIqama": 0,
	"maghribIqama": 0,
	"ishaIqama": 0,
	"editDate": "2024-8-1"
  },
  "AL SHAIKH ALI AL SHAMALI": {
	"arabicName": "مسجد الشيخ علي الشمالي",
	"block": 633,
	"location": {
	  "lon": 50.6144885,
	  "lat": 26.13674257
	},
	"fajrIqama": 0,
	"dhuhrIqama": 0,
	"asrIqama": 0,
	"maghribIqama": 0,
	"ishaIqama": 0,
	"editDate": "2024-8-1"
  },
  "AL DHAMEN": {
	"arabicName": "مسجد الضامن",
	"block": 633,
	"location": {
	  "lon": 50.61629088,
	  "lat": 26.13357491
	},
	"fajrIqama": 0,
	"dhuhrIqama": 0,
	"asrIqama": 0,
	"maghribIqama": 0,
	"ishaIqama": 0,
	"editDate": "2024-8-1"
  },
  "AL SAKRAN": {
	"arabicName": "مسجد السكران",
	"block": 644,
	"location": {
	  "lon": 50.5983826,
	  "lat": 26.13787934
	},
	"fajrIqama": 0,
	"dhuhrIqama": 0,
	"asrIqama": 0,
	"maghribIqama": 0,
	"ishaIqama": 0,
	"editDate": "2024-8-1"
  },
  "AL HASAN AL ASKARI": {
	"arabicName": "مسجد الحسن العسكري",
	"block": 701,
	"location": {
	  "lon": 50.5448224,
	  "lat": 26.18491747
	},
	"fajrIqama": 0,
	"dhuhrIqama": 0,
	"asrIqama": 0,
	"maghribIqama": 0,
	"ishaIqama": 0,
	"editDate": "2024-8-1"
  },
  "AL KARAYEN": {
	"arabicName": "مسجد القرايين",
	"block": 701,
	"location": {
	  "lon": 50.54890736,
	  "lat": 26.18562385
	},
	"fajrIqama": 0,
	"dhuhrIqama": 0,
	"asrIqama": 0,
	"maghribIqama": 0,
	"ishaIqama": 0,
	"editDate": "2024-8-1"
  },
  "ABDULLAH BIN AL ABBAS GARDEN": {
	"arabicName": "مسجد حدائق عبدالله بن العباس",
	"block": 704,
	"location": {
	  "lon": 50.53090456,
	  "lat": 26.18296042
	},
	"fajrIqama": 0,
	"dhuhrIqama": 0,
	"asrIqama": 0,
	"maghribIqama": 0,
	"ishaIqama": 0,
	"editDate": "2024-8-1"
  },
  "ABDULLAH IBN AL ABBAS": {
	"arabicName": "مسجد عبدالله إبن العباس",
	"block": 704,
	"location": {
	  "lon": 50.53091955,
	  "lat": 26.18292512
	},
	"fajrIqama": 0,
	"dhuhrIqama": 0,
	"asrIqama": 0,
	"maghribIqama": 0,
	"ishaIqama": 0,
	"editDate": "2024-8-1"
  },
  "AL DIRAH": {
	"arabicName": "مسجد الديرة",
	"block": 242,
	"location": {
	  "lon": 50.63283516,
	  "lat": 26.25309204
	},
	"fajrIqama": 0,
	"dhuhrIqama": 0,
	"asrIqama": 0,
	"maghribIqama": 0,
	"ishaIqama": 0,
	"editDate": "2024-8-1"
  },
  "AL SHAIKH NASSER": {
	"arabicName": "مسجد الشيخ ناصر",
	"block": 705,
	"location": {
	  "lon": 50.55540107,
	  "lat": 26.18269868
	},
	"fajrIqama": 0,
	"dhuhrIqama": 0,
	"asrIqama": 0,
	"maghribIqama": 0,
	"ishaIqama": 0,
	"editDate": "2024-8-1"
  },
  "AL KAWKAB": {
	"arabicName": "مسجد الكوكب",
	"block": 359,
	"location": {
	  "lon": 50.56604389,
	  "lat": 26.21230606
	},
	"fajrIqama": 0,
	"dhuhrIqama": 0,
	"asrIqama": 0,
	"maghribIqama": 0,
	"ishaIqama": 0,
	"editDate": "2024-8-1"
  },
  "ALHAJ": {
	"arabicName": "مسجد الحاج",
	"block": 707,
	"location": {
	  "lon": 50.55073313,
	  "lat": 26.18718868
	},
	"fajrIqama": 0,
	"dhuhrIqama": 0,
	"asrIqama": 0,
	"maghribIqama": 0,
	"ishaIqama": 0,
	"editDate": "2024-8-1"
  },
  "AL ZAJ": {
	"arabicName": "مسجد الزج",
	"block": 707,
	"location": {
	  "lon": 50.55058138,
	  "lat": 26.18698775
	},
	"fajrIqama": 0,
	"dhuhrIqama": 0,
	"asrIqama": 0,
	"maghribIqama": 0,
	"ishaIqama": 0,
	"editDate": "2024-8-1"
  },
  "AL SARRAJ": {
	"arabicName": "مسجد السراج",
	"block": 707,
	"location": {
	  "lon": 50.55038108,
	  "lat": 26.18665203
	},
	"fajrIqama": 0,
	"dhuhrIqama": 0,
	"asrIqama": 0,
	"maghribIqama": 0,
	"ishaIqama": 0,
	"editDate": "2024-8-1"
  },
  "AL SOUQ": {
	"arabicName": "مسجد السوق",
	"block": 740,
	"location": {
	  "lon": 50.51721289,
	  "lat": 26.16139899
	},
	"fajrIqama": 0,
	"dhuhrIqama": 0,
	"asrIqama": 0,
	"maghribIqama": 0,
	"ishaIqama": 0,
	"editDate": "2024-8-1"
  },
  "SHAIKHA KHALIL KANOO": {
	"arabicName": "جامع شيخة خليل كانو",
	"block": 711,
	"location": {
	  "lon": 50.55766036,
	  "lat": 26.19282255
	},
	"fajrIqama": 0,
	"dhuhrIqama": 0,
	"asrIqama": 0,
	"maghribIqama": 0,
	"ishaIqama": 0,
	"editDate": "2024-8-1"
  },
  "ALHAJ KHALIL BIN EBRAHIM KANOO": {
	"arabicName": "جامع الحاج خليل بن ابراهيم كانو",
	"block": 720,
	"location": {
	  "lon": 50.53779086,
	  "lat": 26.1734859
	},
	"fajrIqama": 0,
	"dhuhrIqama": 0,
	"asrIqama": 0,
	"maghribIqama": 0,
	"ishaIqama": 0,
	"editDate": "2024-8-1"
  },
  "TARIQ BIN MUHAMMAD ALSHEHHI": {
	"arabicName": "مسجد طارق بن محمد الشحي",
	"block": 720,
	"location": {
	  "lon": 50.53811222,
	  "lat": 26.16986998
	},
	"fajrIqama": 0,
	"dhuhrIqama": 0,
	"asrIqama": 0,
	"maghribIqama": 0,
	"ishaIqama": 0,
	"editDate": "2024-8-1"
  },
  "AL EMAM AL HASAN BIN ALI BIN ABI TALEB": {
	"arabicName": "مسجد الإمام الحسن بن علي بن أبي طالب - مسجد أبو الغيلم",
	"block": 721,
	"location": {
	  "lon": 50.56212362,
	  "lat": 26.18360239
	},
	"fajrIqama": 0,
	"dhuhrIqama": 0,
	"asrIqama": 0,
	"maghribIqama": 0,
	"ishaIqama": 0,
	"editDate": "2024-8-1"
  },
  "AL HARAM": {
	"arabicName": "مسجد الحرم",
	"block": 721,
	"location": {
	  "lon": 50.55967587,
	  "lat": 26.17966119
	},
	"fajrIqama": 0,
	"dhuhrIqama": 0,
	"asrIqama": 0,
	"maghribIqama": 0,
	"ishaIqama": 0,
	"editDate": "2024-8-1"
  },
  "AL SHAIKH ABDULLAH ALSAKHAN": {
	"arabicName": "مسجد الشيخ عبدالله السخان",
	"block": 729,
	"location": {
	  "lon": 50.57245684,
	  "lat": 26.1701758
	},
	"fajrIqama": 0,
	"dhuhrIqama": 0,
	"asrIqama": 0,
	"maghribIqama": 0,
	"ishaIqama": 0,
	"editDate": "2024-8-1"
  },
  "AL EMAM AL RIDHA": {
	"arabicName": "مسجد الإمام الرضا",
	"block": 633,
	"location": {
	  "lon": 50.6121063,
	  "lat": 26.13679929
	},
	"fajrIqama": 0,
	"dhuhrIqama": 0,
	"asrIqama": 0,
	"maghribIqama": 0,
	"ishaIqama": 0,
	"editDate": "2024-8-1"
  },
  "MANAR ALHUDA": {
	"arabicName": "مسجد منار الهدى",
	"block": 733,
	"location": {
	  "lon": 50.58007432,
	  "lat": 26.15669557
	},
	"fajrIqama": 0,
	"dhuhrIqama": 0,
	"asrIqama": 0,
	"maghribIqama": 0,
	"ishaIqama": 0,
	"editDate": "2024-8-1"
  },
  "AL EMAM AL HUSSAIN": {
	"arabicName": "مسجد الإمام الحسين",
	"block": 1033,
	"location": {
	  "lon": 50.48292465,
	  "lat": 26.10380666
	},
	"fajrIqama": 0,
	"dhuhrIqama": 0,
	"asrIqama": 0,
	"maghribIqama": 0,
	"ishaIqama": 0,
	"editDate": "2024-8-1"
  },
  "AL ZAHRA'": {
	"arabicName": "جامع الزهراء",
	"block": 1210,
	"location": {
	  "lon": 50.50387406,
	  "lat": 26.09835594
	},
	"fajrIqama": 0,
	"dhuhrIqama": 0,
	"asrIqama": 0,
	"maghribIqama": 0,
	"ishaIqama": 0,
	"editDate": "2024-8-1"
  },
  "MULLA HUSSAIN": {
	"arabicName": "مسجد ملا حسين",
	"block": 738,
	"location": {
	  "lon": 50.51866431,
	  "lat": 26.15718893
	},
	"fajrIqama": 0,
	"dhuhrIqama": 0,
	"asrIqama": 0,
	"maghribIqama": 0,
	"ishaIqama": 0,
	"editDate": "2024-8-1"
  },
  "AL GARD": {
	"arabicName": "مسجد الجرد",
	"block": 740,
	"location": {
	  "lon": 50.51841965,
	  "lat": 26.16217802
	},
	"fajrIqama": 0,
	"dhuhrIqama": 0,
	"asrIqama": 0,
	"maghribIqama": 0,
	"ishaIqama": 0,
	"editDate": "2024-8-1"
  },
  "AL JUBAILIYAH": {
	"arabicName": "مسجد الجبيليه",
	"block": 742,
	"location": {
	  "lon": 50.51458038,
	  "lat": 26.15740497
	},
	"fajrIqama": 0,
	"dhuhrIqama": 0,
	"asrIqama": 0,
	"maghribIqama": 0,
	"ishaIqama": 0,
	"editDate": "2024-8-1"
  },
  "AL KARRARAH": {
	"arabicName": "مسجد الكراره",
	"block": 742,
	"location": {
	  "lon": 50.51709489,
	  "lat": 26.16318803
	},
	"fajrIqama": 0,
	"dhuhrIqama": 0,
	"asrIqama": 0,
	"maghribIqama": 0,
	"ishaIqama": 0,
	"editDate": "2024-8-1"
  },
  "AHMED MANSOOR": {
	"arabicName": "مسجد أحمد منصور",
	"block": 742,
	"location": {
	  "lon": 50.51669421,
	  "lat": 26.15849439
	},
	"fajrIqama": 0,
	"dhuhrIqama": 0,
	"asrIqama": 0,
	"maghribIqama": 0,
	"ishaIqama": 0,
	"editDate": "2024-8-1"
  },
  "AIN RASTAN": {
	"arabicName": "مسجد عين رستان",
	"block": 742,
	"location": {
	  "lon": 50.5114702,
	  "lat": 26.16490771
	},
	"fajrIqama": 0,
	"dhuhrIqama": 0,
	"asrIqama": 0,
	"maghribIqama": 0,
	"ishaIqama": 0,
	"editDate": "2024-8-1"
  },
  "AMIR MUHAMMAD BARBGI": {
	"arabicName": "مسجد أمير محمد بربجي",
	"block": 744,
	"location": {
	  "lon": 50.50334799,
	  "lat": 26.17246169
	},
	"fajrIqama": 0,
	"dhuhrIqama": 0,
	"asrIqama": 0,
	"maghribIqama": 0,
	"ishaIqama": 0,
	"editDate": "2024-8-1"
  },
  "ALI BEN ALI": {
	"arabicName": "مسجد علي بن علي",
	"block": 758,
	"location": {
	  "lon": 50.49718685,
	  "lat": 26.15129156
	},
	"fajrIqama": 0,
	"dhuhrIqama": 0,
	"asrIqama": 0,
	"maghribIqama": 0,
	"ishaIqama": 0,
	"editDate": "2024-8-1"
  },
  "AL ZUBAIR IBN ALAWAM": {
	"arabicName": "مسجد الزبير إبن العوام",
	"block": 804,
	"location": {
	  "lon": 50.54752564,
	  "lat": 26.17808216
	},
	"fajrIqama": 0,
	"dhuhrIqama": 0,
	"asrIqama": 0,
	"maghribIqama": 0,
	"ishaIqama": 0,
	"editDate": "2024-8-1"
  },
  "BILAL BIN RABAH WEST": {
	"arabicName": "مسجد بلال بن رباح الغربي",
	"block": 805,
	"location": {
	  "lon": 50.54273398,
	  "lat": 26.17713831
	},
	"fajrIqama": 0,
	"dhuhrIqama": 0,
	"asrIqama": 0,
	"maghribIqama": 0,
	"ishaIqama": 0,
	"editDate": "2024-8-1"
  },
  "AL GHUFRAN": {
	"arabicName": "مسجد الغفران",
	"block": 538,
	"location": {
	  "lon": 50.46155459,
	  "lat": 26.21659456
	},
	"fajrIqama": 0,
	"dhuhrIqama": 0,
	"asrIqama": 0,
	"maghribIqama": 0,
	"ishaIqama": 0,
	"editDate": "2024-8-1"
  },
  "AMMAR BIN YASER": {
	"arabicName": "مسجد عمار بن ياسر",
	"block": 808,
	"location": {
	  "lon": 50.54458698,
	  "lat": 26.17896019
	},
	"fajrIqama": 0,
	"dhuhrIqama": 0,
	"asrIqama": 0,
	"maghribIqama": 0,
	"ishaIqama": 0,
	"editDate": "2024-8-1"
  },
  "ISA TOWN SOUTHERN": {
	"arabicName": "مسجد مدينة عيسى الجنوبي",
	"block": 810,
	"location": {
	  "lon": 50.54940676,
	  "lat": 26.17215775
	},
	"fajrIqama": 0,
	"dhuhrIqama": 0,
	"asrIqama": 0,
	"maghribIqama": 0,
	"ishaIqama": 0,
	"editDate": "2024-8-1"
  },
  "AL RUDHWAN": {
	"arabicName": "مسجد الرضوان",
	"block": 812,
	"location": {
	  "lon": 50.55315913,
	  "lat": 26.17285399
	},
	"fajrIqama": 0,
	"dhuhrIqama": 0,
	"asrIqama": 0,
	"maghribIqama": 0,
	"ishaIqama": 0,
	"editDate": "2024-8-1"
  },
  "AL EMAM AL HADI": {
	"arabicName": "مسجد الإمام الهادي",
	"block": 706,
	"location": {
	  "lon": 50.52639918,
	  "lat": 26.18340442
	},
	"fajrIqama": 0,
	"dhuhrIqama": 0,
	"asrIqama": 0,
	"maghribIqama": 0,
	"ishaIqama": 0,
	"editDate": "2024-8-1"
  },
  "NOUF BINT HAMAD AL NASSAR": {
	"arabicName": "مسجد نوف بنت حمد النصار",
	"block": 814,
	"location": {
	  "lon": 50.56430476,
	  "lat": 26.16676565
	},
	"fajrIqama": 0,
	"dhuhrIqama": 0,
	"asrIqama": 0,
	"maghribIqama": 0,
	"ishaIqama": 0,
	"editDate": "2024-8-1"
  },
  "FATIMAH KANOO": {
	"arabicName": "مسجد فاطمة كانو",
	"block": 815,
	"location": {
	  "lon": 50.56717045,
	  "lat": 26.16151223
	},
	"fajrIqama": 0,
	"dhuhrIqama": 0,
	"asrIqama": 0,
	"maghribIqama": 0,
	"ishaIqama": 0,
	"editDate": "2024-8-1"
  },
  "": {
	"arabicName": "مسجد",
	"block": 941,
	"location": {
	  "lon": 50.56846188,
	  "lat": 26.15015199
	},
	"fajrIqama": 0,
	"dhuhrIqama": 0,
	"asrIqama": 0,
	"maghribIqama": 0,
	"ishaIqama": 0,
	"editDate": "2024-8-1"
  },
  "AL EMAM AL BUKHARI": {
	"arabicName": "مسجد الإمام البخاري",
	"block": 816,
	"location": {
	  "lon": 50.57474098,
	  "lat": 26.15789922
	},
	"fajrIqama": 0,
	"dhuhrIqama": 0,
	"asrIqama": 0,
	"maghribIqama": 0,
	"ishaIqama": 0,
	"editDate": "2024-8-1"
  },
  "HASAN BIN MUHAMMAD AL KAABY": {
	"arabicName": "مسجد حسن بن محمد الكعبي",
	"block": 902,
	"location": {
	  "lon": 50.54271992,
	  "lat": 26.12459112
	},
	"fajrIqama": 0,
	"dhuhrIqama": 0,
	"asrIqama": 0,
	"maghribIqama": 0,
	"ishaIqama": 0,
	"editDate": "2024-8-1"
  },
  "ABDULLAH AHMED KHALIFA ALGHATAM": {
	"arabicName": "مسجد عبدالله أحمد خليفة الغتم",
	"block": 903,
	"location": {
	  "lon": 50.56624458,
	  "lat": 26.11720739
	},
	"fajrIqama": 0,
	"dhuhrIqama": 0,
	"asrIqama": 0,
	"maghribIqama": 0,
	"ishaIqama": 0,
	"editDate": "2024-8-1"
  },
  "ISA BIN ISA": {
	"arabicName": "مسجد عيسى بن عيسى",
	"block": 903,
	"location": {
	  "lon": 50.56734188,
	  "lat": 26.11811952
	},
	"fajrIqama": 0,
	"dhuhrIqama": 0,
	"asrIqama": 0,
	"maghribIqama": 0,
	"ishaIqama": 0,
	"editDate": "2024-8-1"
  },
  "THO AL NOORAIN BIN HUWAIL": {
	"arabicName": "مسجد ذو النورين بن حويل",
	"block": 907,
	"location": {
	  "lon": 50.57447066,
	  "lat": 26.11642485
	},
	"fajrIqama": 0,
	"dhuhrIqama": 0,
	"asrIqama": 0,
	"maghribIqama": 0,
	"ishaIqama": 0,
	"editDate": "2024-8-1"
  },
  "MARIAM": {
	"arabicName": "جامع مريم",
	"block": 909,
	"location": {
	  "lon": 50.56825647,
	  "lat": 26.11418659
	},
	"fajrIqama": 0,
	"dhuhrIqama": 0,
	"asrIqama": 0,
	"maghribIqama": 0,
	"ishaIqama": 0,
	"editDate": "2024-8-1"
  },
  "AHMED BIN AJLAN": {
	"arabicName": "مسجد احمد بن عجلان",
	"block": 910,
	"location": {
	  "lon": 50.5428327,
	  "lat": 26.1197914
	},
	"fajrIqama": 0,
	"dhuhrIqama": 0,
	"asrIqama": 0,
	"maghribIqama": 0,
	"ishaIqama": 0,
	"editDate": "2024-8-1"
  },
  "AHMAD BIN MUHAMMAD": {
	"arabicName": "مسجد احمد بن محمد",
	"block": 910,
	"location": {
	  "lon": 50.54462057,
	  "lat": 26.1248826
	},
	"fajrIqama": 0,
	"dhuhrIqama": 0,
	"asrIqama": 0,
	"maghribIqama": 0,
	"ishaIqama": 0,
	"editDate": "2024-8-1"
  },
  "SHAIKH ABDULLAH KHALID ALI ALKHALIFA": {
	"arabicName": "مسجد الشيخ عبدالله خالد علي الخليفة",
	"block": 910,
	"location": {
	  "lon": 50.54866857,
	  "lat": 26.12542373
	},
	"fajrIqama": 0,
	"dhuhrIqama": 0,
	"asrIqama": 0,
	"maghribIqama": 0,
	"ishaIqama": 0,
	"editDate": "2024-8-1"
  },
  "AMRO BIN ALAAS": {
	"arabicName": "مسجد عمرو بن العاص",
	"block": 911,
	"location": {
	  "lon": 50.57967624,
	  "lat": 26.11770032
	},
	"fajrIqama": 0,
	"dhuhrIqama": 0,
	"asrIqama": 0,
	"maghribIqama": 0,
	"ishaIqama": 0,
	"editDate": "2024-8-1"
  },
  "AL BUKOWARAH": {
	"arabicName": "مسجد البوكوارة",
	"block": 209,
	"location": {
	  "lon": 50.61057858,
	  "lat": 26.25337992
	},
	"fajrIqama": 0,
	"dhuhrIqama": 0,
	"asrIqama": 0,
	"maghribIqama": 0,
	"ishaIqama": 0,
	"editDate": "2024-8-1"
  },
  "AL ABBAS BIN ABDULMUTALIB": {
	"arabicName": "مسجد العباس بن عبدالمطلب",
	"block": 915,
	"location": {
	  "lon": 50.55844763,
	  "lat": 26.13837466
	},
	"fajrIqama": 0,
	"dhuhrIqama": 0,
	"asrIqama": 0,
	"maghribIqama": 0,
	"ishaIqama": 0,
	"editDate": "2024-8-1"
  },
  "AL NOOR": {
	"arabicName": "مسجد النور",
	"block": 1042,
	"location": {
	  "lon": 50.49626499,
	  "lat": 26.0779498
	},
	"fajrIqama": 0,
	"dhuhrIqama": 0,
	"asrIqama": 0,
	"maghribIqama": 0,
	"ishaIqama": 0,
	"editDate": "2024-8-1"
  },
  "SOGHAT": {
	"arabicName": "مسجد سوغات",
	"block": 920,
	"location": {
	  "lon": 50.53843599,
	  "lat": 26.13880764
	},
	"fajrIqama": 0,
	"dhuhrIqama": 0,
	"asrIqama": 0,
	"maghribIqama": 0,
	"ishaIqama": 0,
	"editDate": "2024-8-1"
  },
  "HESSA JABER ZABARI": {
	"arabicName": "مسجد حصة جابر زباري",
	"block": 921,
	"location": {
	  "lon": 50.56404692,
	  "lat": 26.13774739
	},
	"fajrIqama": 0,
	"dhuhrIqama": 0,
	"asrIqama": 0,
	"maghribIqama": 0,
	"ishaIqama": 0,
	"editDate": "2024-8-1"
  },
  "ALSHAIKHA MUZA BINT HAMAD AAL KHALIFA": {
	"arabicName": "مسجد الشيخة موزة بنت حمد آل خليفة",
	"block": 1014,
	"location": {
	  "lon": 50.4881396,
	  "lat": 26.14599617
	},
	"fajrIqama": 0,
	"dhuhrIqama": 0,
	"asrIqama": 0,
	"maghribIqama": 0,
	"ishaIqama": 0,
	"editDate": "2024-8-1"
  },
  "AL SALAM": {
	"arabicName": "مسجد السلام",
	"block": 923,
	"location": {
	  "lon": 50.56769727,
	  "lat": 26.13348656
	},
	"fajrIqama": 0,
	"dhuhrIqama": 0,
	"asrIqama": 0,
	"maghribIqama": 0,
	"ishaIqama": 0,
	"editDate": "2024-8-1"
  },
  "ALSHAIKHA HESSA BINT SALMAN AAL KHALIFA": {
	"arabicName": "مسجد سمو الشيخة حصة بنت سلمان آل خليفة",
	"block": 924,
	"location": {
	  "lon": 50.51529946,
	  "lat": 26.14168339
	},
	"fajrIqama": 0,
	"dhuhrIqama": 0,
	"asrIqama": 0,
	"maghribIqama": 0,
	"ishaIqama": 0,
	"editDate": "2024-8-1"
  },
  "YOUSIF AHMED AL QURAINAIS BIN HUWAIL": {
	"arabicName": "مسجد يوسف أحمد القرينيس",
	"block": 927,
	"location": {
	  "lon": 50.57268807,
	  "lat": 26.12546339
	},
	"fajrIqama": 0,
	"dhuhrIqama": 0,
	"asrIqama": 0,
	"maghribIqama": 0,
	"ishaIqama": 0,
	"editDate": "2024-8-1"
  },
  "AL MUHAJEREEN": {
	"arabicName": "مسجد المهاجرين",
	"block": 931,
	"location": {
	  "lon": 50.57729943,
	  "lat": 26.12913133
	},
	"fajrIqama": 0,
	"dhuhrIqama": 0,
	"asrIqama": 0,
	"maghribIqama": 0,
	"ishaIqama": 0,
	"editDate": "2024-8-1"
  },
  "ABDULLAH BIN OMAR ISLAMIC CENTER AND": {
	"arabicName": "جامع ومركز عبدالله بن عمر الإسلامي",
	"block": 933,
	"location": {
	  "lon": 50.55914847,
	  "lat": 26.14315974
	},
	"fajrIqama": 0,
	"dhuhrIqama": 0,
	"asrIqama": 0,
	"maghribIqama": 0,
	"ishaIqama": 0,
	"editDate": "2024-8-1"
  },
  "SHAIKH ABDULLAH BIN MUHAMMAD AL KHALIFA": {
	"arabicName": "مسجد الشيخ عبدالله بن محمد الخليفة",
	"block": 933,
	"location": {
	  "lon": 50.56715898,
	  "lat": 26.13982664
	},
	"fajrIqama": 0,
	"dhuhrIqama": 0,
	"asrIqama": 0,
	"maghribIqama": 0,
	"ishaIqama": 0,
	"editDate": "2024-8-1"
  },
  "BADRIYAH ALMURBATI": {
	"arabicName": "مسجد بدرية المرباطي",
	"block": 933,
	"location": {
	  "lon": 50.56458024,
	  "lat": 26.13924794
	},
	"fajrIqama": 0,
	"dhuhrIqama": 0,
	"asrIqama": 0,
	"maghribIqama": 0,
	"ishaIqama": 0,
	"editDate": "2024-8-1"
  },
  "AL EHSAN": {
	"arabicName": "مسجد الإحسان",
	"block": 935,
	"location": {
	  "lon": 50.57590472,
	  "lat": 26.13308915
	},
	"fajrIqama": 0,
	"dhuhrIqama": 0,
	"asrIqama": 0,
	"maghribIqama": 0,
	"ishaIqama": 0,
	"editDate": "2024-8-1"
  },
  "AL HASAN BIN ALI": {
	"arabicName": "مسجد الحسن بن علي",
	"block": 935,
	"location": {
	  "lon": 50.57372057,
	  "lat": 26.13548796
	},
	"fajrIqama": 0,
	"dhuhrIqama": 0,
	"asrIqama": 0,
	"maghribIqama": 0,
	"ishaIqama": 0,
	"editDate": "2024-8-1"
  },
  "HASAAN BIN THABIT": {
	"arabicName": "مسجد حسان بن ثابت",
	"block": 937,
	"location": {
	  "lon": 50.57558072,
	  "lat": 26.13888124
	},
	"fajrIqama": 0,
	"dhuhrIqama": 0,
	"asrIqama": 0,
	"maghribIqama": 0,
	"ishaIqama": 0,
	"editDate": "2024-8-1"
  },
  "FATHI AL KAWARI": {
	"arabicName": "مسجد فتحي الكواري",
	"block": 937,
	"location": {
	  "lon": 50.56797412,
	  "lat": 26.14509381
	},
	"fajrIqama": 0,
	"dhuhrIqama": 0,
	"asrIqama": 0,
	"maghribIqama": 0,
	"ishaIqama": 0,
	"editDate": "2024-8-1"
  },
  "- ASKAR": {
	"arabicName": "مسجد - عسكر",
	"block": 950,
	"location": {
	  "lon": 50.6137251,
	  "lat": 26.05642999
	},
	"fajrIqama": 0,
	"dhuhrIqama": 0,
	"asrIqama": 0,
	"maghribIqama": 0,
	"ishaIqama": 0,
	"editDate": "2024-8-1"
  },
  "ASMAA BINT JASSIM ALBUAINAIN": {
	"arabicName": "مسجد أسماء بنت جاسم البوعينين",
	"block": 950,
	"location": {
	  "lon": 50.61656358,
	  "lat": 26.04973114
	},
	"fajrIqama": 0,
	"dhuhrIqama": 0,
	"asrIqama": 0,
	"maghribIqama": 0,
	"ishaIqama": 0,
	"editDate": "2024-8-1"
  },
  "NORTH ASKAR": {
	"arabicName": "مسجد عسكر الشمالي",
	"block": 950,
	"location": {
	  "lon": 50.61868639,
	  "lat": 26.05772271
	},
	"fajrIqama": 0,
	"dhuhrIqama": 0,
	"asrIqama": 0,
	"maghribIqama": 0,
	"ishaIqama": 0,
	"editDate": "2024-8-1"
  },
  "ABDULLAH BIN ZUBAIR": {
	"arabicName": "مسجد عبدالله بن الزبير",
	"block": 952,
	"location": {
	  "lon": 50.62351658,
	  "lat": 26.08069304
	},
	"fajrIqama": 0,
	"dhuhrIqama": 0,
	"asrIqama": 0,
	"maghribIqama": 0,
	"ishaIqama": 0,
	"editDate": "2024-8-1"
  },
  "JAW": {
	"arabicName": "مسجد جو",
	"block": 960,
	"location": {
	  "lon": 50.61736633,
	  "lat": 25.99941674
	},
	"fajrIqama": 0,
	"dhuhrIqama": 0,
	"asrIqama": 0,
	"maghribIqama": 0,
	"ishaIqama": 0,
	"editDate": "2024-8-1"
  },
  "AL DUR": {
	"arabicName": "مسجد الدور",
	"block": 965,
	"location": {
	  "lon": 50.61558703,
	  "lat": 25.97878228
	},
	"fajrIqama": 0,
	"dhuhrIqama": 0,
	"asrIqama": 0,
	"maghribIqama": 0,
	"ishaIqama": 0,
	"editDate": "2024-8-1"
  },
  "AL BAQIE": {
	"arabicName": "مسجد البقيع",
	"block": 1018,
	"location": {
	  "lon": 50.48924939,
	  "lat": 26.11830959
	},
	"fajrIqama": 0,
	"dhuhrIqama": 0,
	"asrIqama": 0,
	"maghribIqama": 0,
	"ishaIqama": 0,
	"editDate": "2024-8-1"
  },
  "AL SHAIKH IBN AL OTHAIMEEN": {
	"arabicName": "مسجد الشيخ إبن عثيمين",
	"block": 1018,
	"location": {
	  "lon": 50.48855148,
	  "lat": 26.12151645
	},
	"fajrIqama": 0,
	"dhuhrIqama": 0,
	"asrIqama": 0,
	"maghribIqama": 0,
	"ishaIqama": 0,
	"editDate": "2024-8-1"
  },
  "AL RAWDAH": {
	"arabicName": "مسجد الروضة",
	"block": 1019,
	"location": {
	  "lon": 50.47631778,
	  "lat": 26.12756728
	},
	"fajrIqama": 0,
	"dhuhrIqama": 0,
	"asrIqama": 0,
	"maghribIqama": 0,
	"ishaIqama": 0,
	"editDate": "2024-8-1"
  },
  "AL SHAIKH MUHAMMAD ABU RUMMANAH": {
	"arabicName": "مسجد الشيخ محمد أبو رمانة",
	"block": 1019,
	"location": {
	  "lon": 50.47477962,
	  "lat": 26.12422101
	},
	"fajrIqama": 0,
	"dhuhrIqama": 0,
	"asrIqama": 0,
	"maghribIqama": 0,
	"ishaIqama": 0,
	"editDate": "2024-8-1"
  },
  "AL ESKAN": {
	"arabicName": "مسجد الإسكان",
	"block": 1022,
	"location": {
	  "lon": 50.47859266,
	  "lat": 26.12294462
	},
	"fajrIqama": 0,
	"dhuhrIqama": 0,
	"asrIqama": 0,
	"maghribIqama": 0,
	"ishaIqama": 0,
	"editDate": "2024-8-1"
  },
  "AL DARAH AL GARBI": {
	"arabicName": "مسجد الدره الغربي",
	"block": 1025,
	"location": {
	  "lon": 50.48075818,
	  "lat": 26.11254071
	},
	"fajrIqama": 0,
	"dhuhrIqama": 0,
	"asrIqama": 0,
	"maghribIqama": 0,
	"ishaIqama": 0,
	"editDate": "2024-8-1"
  },
  "AL FARAJ": {
	"arabicName": "مسجد الفرج",
	"block": 1025,
	"location": {
	  "lon": 50.48256584,
	  "lat": 26.11361459
	},
	"fajrIqama": 0,
	"dhuhrIqama": 0,
	"asrIqama": 0,
	"maghribIqama": 0,
	"ishaIqama": 0,
	"editDate": "2024-8-1"
  },
  "AL EMAM ZAIN AL ABEDEEN": {
	"arabicName": "مسجد الإمام زين العابدين",
	"block": 539,
	"location": {
	  "lon": 50.46432742,
	  "lat": 26.21292271
	},
	"fajrIqama": 0,
	"dhuhrIqama": 0,
	"asrIqama": 0,
	"maghribIqama": 0,
	"ishaIqama": 0,
	"editDate": "2024-8-1"
  },
  "AL AMIR ZAID": {
	"arabicName": "مسجد الأمير زيد",
	"block": 1033,
	"location": {
	  "lon": 50.48209145,
	  "lat": 26.09614229
	},
	"fajrIqama": 0,
	"dhuhrIqama": 0,
	"asrIqama": 0,
	"maghribIqama": 0,
	"ishaIqama": 0,
	"editDate": "2024-8-1"
  },
  "AL SHARQI": {
	"arabicName": "المسجد الشرقي",
	"block": 1010,
	"location": {
	  "lon": 50.4613807,
	  "lat": 26.14338531
	},
	"fajrIqama": 0,
	"dhuhrIqama": 0,
	"asrIqama": 0,
	"maghribIqama": 0,
	"ishaIqama": 0,
	"editDate": "2024-8-1"
  },
  "JAMEA AL NABI": {
	"arabicName": "مسجد جامع النبي",
	"block": 1034,
	"location": {
	  "lon": 50.48856019,
	  "lat": 26.09752676
	},
	"fajrIqama": 0,
	"dhuhrIqama": 0,
	"asrIqama": 0,
	"maghribIqama": 0,
	"ishaIqama": 0,
	"editDate": "2024-8-1"
  },
  "AL HAMAM": {
	"arabicName": "مسجد الحمام",
	"block": 1037,
	"location": {
	  "lon": 50.48991039,
	  "lat": 26.08225911
	},
	"fajrIqama": 0,
	"dhuhrIqama": 0,
	"asrIqama": 0,
	"maghribIqama": 0,
	"ishaIqama": 0,
	"editDate": "2024-8-1"
  },
  "ABDULHASAN SOUTH": {
	"arabicName": "مسجد عبدالحسن الجنوبي",
	"block": 1037,
	"location": {
	  "lon": 50.48817713,
	  "lat": 26.08060807
	},
	"fajrIqama": 0,
	"dhuhrIqama": 0,
	"asrIqama": 0,
	"maghribIqama": 0,
	"ishaIqama": 0,
	"editDate": "2024-8-1"
  },
  "AL SHAIKH LAYTH": {
	"arabicName": "مسجد الشيخ ليث",
	"block": 1044,
	"location": {
	  "lon": 50.50184902,
	  "lat": 26.0747652
	},
	"fajrIqama": 0,
	"dhuhrIqama": 0,
	"asrIqama": 0,
	"maghribIqama": 0,
	"ishaIqama": 0,
	"editDate": "2024-8-1"
  },
  "AL ZALLAQ CEMETERY": {
	"arabicName": "مسجد مقبرة الزلاق",
	"block": 1056,
	"location": {
	  "lon": 50.49382992,
	  "lat": 26.04860101
	},
	"fajrIqama": 0,
	"dhuhrIqama": 0,
	"asrIqama": 0,
	"maghribIqama": 0,
	"ishaIqama": 0,
	"editDate": "2024-8-1"
  },
  "SHAIKH NASSER BIN HAMAD": {
	"arabicName": "مسجد الشيخ ناصر بن حمد",
	"block": 1067,
	"location": {
	  "lon": 50.46373292,
	  "lat": 25.96909101
	},
	"fajrIqama": 0,
	"dhuhrIqama": 0,
	"asrIqama": 0,
	"maghribIqama": 0,
	"ishaIqama": 0,
	"editDate": "2024-8-1"
  },
  "HAMAD TOWN": {
	"arabicName": "جامع مدينة حمد",
	"block": 1203,
	"location": {
	  "lon": 50.49433624,
	  "lat": 26.13482704
	},
	"fajrIqama": 0,
	"dhuhrIqama": 0,
	"asrIqama": 0,
	"maghribIqama": 0,
	"ishaIqama": 0,
	"editDate": "2024-8-1"
  },
  "AL RAHMA": {
	"arabicName": "مسجد الرحمة",
	"block": 202,
	"location": {
	  "lon": 50.61933404,
	  "lat": 26.26442951
	},
	"fajrIqama": 0,
	"dhuhrIqama": 0,
	"asrIqama": 0,
	"maghribIqama": 0,
	"ishaIqama": 0,
	"editDate": "2024-8-1"
  },
  "AL HEKMA": {
	"arabicName": "جامع الحكمة",
	"block": 743,
	"location": {
	  "lon": 50.57627449,
	  "lat": 26.15268432
	},
	"fajrIqama": 0,
	"dhuhrIqama": 0,
	"asrIqama": 0,
	"maghribIqama": 0,
	"ishaIqama": 0,
	"editDate": "2024-8-1"
  },
  "KAREEM AHEL AL BAIT GRAND": {
	"arabicName": "مسجد كريم أهل البيت",
	"block": 1207,
	"location": {
	  "lon": 50.49688342,
	  "lat": 26.11780924
	},
	"fajrIqama": 0,
	"dhuhrIqama": 0,
	"asrIqama": 0,
	"maghribIqama": 0,
	"ishaIqama": 0,
	"editDate": "2024-8-1"
  },
  "AL ESMAH": {
	"arabicName": "مسجد العصمه",
	"block": 1208,
	"location": {
	  "lon": 50.50652143,
	  "lat": 26.11319947
	},
	"fajrIqama": 0,
	"dhuhrIqama": 0,
	"asrIqama": 0,
	"maghribIqama": 0,
	"ishaIqama": 0,
	"editDate": "2024-8-1"
  },
  "ZAKIYAH KAMAL": {
	"arabicName": "مسجد زكية كمال",
	"block": 1208,
	"location": {
	  "lon": 50.50631411,
	  "lat": 26.1181323
	},
	"fajrIqama": 0,
	"dhuhrIqama": 0,
	"asrIqama": 0,
	"maghribIqama": 0,
	"ishaIqama": 0,
	"editDate": "2024-8-1"
  },
  "MUS'AB BIN OMAIR": {
	"arabicName": "جامع مصعب بن عمير",
	"block": 1211,
	"location": {
	  "lon": 50.50560555,
	  "lat": 26.08858713
	},
	"fajrIqama": 0,
	"dhuhrIqama": 0,
	"asrIqama": 0,
	"maghribIqama": 0,
	"ishaIqama": 0,
	"editDate": "2024-8-1"
  },
  "UMM AL BANEEN": {
	"arabicName": "مسجد أم البنين",
	"block": 1211,
	"location": {
	  "lon": 50.50292591,
	  "lat": 26.09652203
	},
	"fajrIqama": 0,
	"dhuhrIqama": 0,
	"asrIqama": 0,
	"maghribIqama": 0,
	"ishaIqama": 0,
	"editDate": "2024-8-1"
  },
  "JALAIBEEB": {
	"arabicName": "مسجد جليبيب",
	"block": 1211,
	"location": {
	  "lon": 50.50355988,
	  "lat": 26.09386506
	},
	"fajrIqama": 0,
	"dhuhrIqama": 0,
	"asrIqama": 0,
	"maghribIqama": 0,
	"ishaIqama": 0,
	"editDate": "2024-8-1"
  },
  "ABU AYOUB AL ANSARI": {
	"arabicName": "مسجد أبو أيوب الأنصاري",
	"block": 1213,
	"location": {
	  "lon": 50.50459199,
	  "lat": 26.08134067
	},
	"fajrIqama": 0,
	"dhuhrIqama": 0,
	"asrIqama": 0,
	"maghribIqama": 0,
	"ishaIqama": 0,
	"editDate": "2024-8-1"
  },
  "SHUHADAA OHUD": {
	"arabicName": "مسجد شهداء أحد",
	"block": 1215,
	"location": {
	  "lon": 50.50784621,
	  "lat": 26.0590881
	},
	"fajrIqama": 0,
	"dhuhrIqama": 0,
	"asrIqama": 0,
	"maghribIqama": 0,
	"ishaIqama": 0,
	"editDate": "2024-8-1"
  },
  "HAMAD TOWN SOUTHERN": {
	"arabicName": "مسجد مدينة حمد الجنوبي",
	"block": 1216,
	"location": {
	  "lon": 50.51524811,
	  "lat": 26.05961452
	},
	"fajrIqama": 0,
	"dhuhrIqama": 0,
	"asrIqama": 0,
	"maghribIqama": 0,
	"ishaIqama": 0,
	"editDate": "2024-8-1"
  },
  "AJOOR": {
	"arabicName": "مسجد اجور",
	"block": 1218,
	"location": {
	  "lon": 50.50594412,
	  "lat": 26.1046562
	},
	"fajrIqama": 0,
	"dhuhrIqama": 0,
	"asrIqama": 0,
	"maghribIqama": 0,
	"ishaIqama": 0,
	"editDate": "2024-8-1"
  },
  "AL YOUSHA": {
	"arabicName": "مسجد اليوشع",
	"block": 102,
	"location": {
	  "lon": 50.65572032,
	  "lat": 26.24944641
	},
	"fajrIqama": 0,
	"dhuhrIqama": 0,
	"asrIqama": 0,
	"maghribIqama": 0,
	"ishaIqama": 0,
	"editDate": "2024-8-1"
  },
  "ʻAISHA UMM AL MOAMININ GRAND": {
	"arabicName": "مسجد عائشة أم المؤمنين",
	"block": 102,
	"location": {
	  "lon": 50.65554547,
	  "lat": 26.25186109
	},
	"fajrIqama": 0,
	"dhuhrIqama": 0,
	"asrIqama": 0,
	"maghribIqama": 0,
	"ishaIqama": 0,
	"editDate": "2024-8-1"
  },
  "AL BUFLASEH": {
	"arabicName": "مسجد البوفلاسه",
	"block": 104,
	"location": {
	  "lon": 50.65450417,
	  "lat": 26.24253458
	},
	"fajrIqama": 0,
	"dhuhrIqama": 0,
	"asrIqama": 0,
	"maghribIqama": 0,
	"ishaIqama": 0,
	"editDate": "2024-8-1"
  },
  "SHANAF": {
	"arabicName": "مسجد شناف",
	"block": 105,
	"location": {
	  "lon": 50.65373243,
	  "lat": 26.24498048
	},
	"fajrIqama": 0,
	"dhuhrIqama": 0,
	"asrIqama": 0,
	"maghribIqama": 0,
	"ishaIqama": 0,
	"editDate": "2024-8-1"
  },
  "AL HAMD": {
	"arabicName": "مسجد الحمد",
	"block": 106,
	"location": {
	  "lon": 50.65623891,
	  "lat": 26.24136211
	},
	"fajrIqama": 0,
	"dhuhrIqama": 0,
	"asrIqama": 0,
	"maghribIqama": 0,
	"ishaIqama": 0,
	"editDate": "2024-8-1"
  },
  "AL BURSHAID": {
	"arabicName": "مسجد البورشيد",
	"block": 107,
	"location": {
	  "lon": 50.65329723,
	  "lat": 26.23670281
	},
	"fajrIqama": 0,
	"dhuhrIqama": 0,
	"asrIqama": 0,
	"maghribIqama": 0,
	"ishaIqama": 0,
	"editDate": "2024-8-1"
  },
  "WEDAD YAQOUB ALMUFTAH": {
	"arabicName": "مسجد وداد يعقوب المفتاح",
	"block": 109,
	"location": {
	  "lon": 50.64369088,
	  "lat": 26.24266613
	},
	"fajrIqama": 0,
	"dhuhrIqama": 0,
	"asrIqama": 0,
	"maghribIqama": 0,
	"ishaIqama": 0,
	"editDate": "2024-8-1"
  },
  "AL TAQWA": {
	"arabicName": "مسجد التقوى",
	"block": 110,
	"location": {
	  "lon": 50.65596831,
	  "lat": 26.23792465
	},
	"fajrIqama": 0,
	"dhuhrIqama": 0,
	"asrIqama": 0,
	"maghribIqama": 0,
	"ishaIqama": 0,
	"editDate": "2024-8-1"
  },
  "ORWAH BIN AL ZUBAIR": {
	"arabicName": "مسجد عروة بن الزبير",
	"block": 110,
	"location": {
	  "lon": 50.65363362,
	  "lat": 26.23388239
	},
	"fajrIqama": 0,
	"dhuhrIqama": 0,
	"asrIqama": 0,
	"maghribIqama": 0,
	"ishaIqama": 0,
	"editDate": "2024-8-1"
  },
  "EBRAHIM MAHMOOD ALKOOHEJI": {
	"arabicName": "جامع إبراهيم محمود الكوهجي",
	"block": 113,
	"location": {
	  "lon": 50.65026095,
	  "lat": 26.23554458
	},
	"fajrIqama": 0,
	"dhuhrIqama": 0,
	"asrIqama": 0,
	"maghribIqama": 0,
	"ishaIqama": 0,
	"editDate": "2024-8-1"
  },
  "MUHAMMAD BIN YOUSIF AL KHAJAH": {
	"arabicName": "مسجد محمد يوسف الخاجة",
	"block": 202,
	"location": {
	  "lon": 50.622109,
	  "lat": 26.26750415
	},
	"fajrIqama": 0,
	"dhuhrIqama": 0,
	"asrIqama": 0,
	"maghribIqama": 0,
	"ishaIqama": 0,
	"editDate": "2024-8-1"
  },
  "SHAIKH SALMAN": {
	"arabicName": "جامع الشيخ سلمان",
	"block": 946,
	"location": {
	  "lon": 50.54157317,
	  "lat": 26.08588206
	},
	"fajrIqama": 0,
	"dhuhrIqama": 0,
	"asrIqama": 0,
	"maghribIqama": 0,
	"ishaIqama": 0,
	"editDate": "2024-8-1"
  },
  "AL ARRAR": {
	"arabicName": "مسجد العرار",
	"block": 203,
	"location": {
	  "lon": 50.60972712,
	  "lat": 26.25837077
	},
	"fajrIqama": 0,
	"dhuhrIqama": 0,
	"asrIqama": 0,
	"maghribIqama": 0,
	"ishaIqama": 0,
	"editDate": "2024-8-1"
  },
  "BIN SABT": {
	"arabicName": "مسجد بن سبت",
	"block": 203,
	"location": {
	  "lon": 50.60981595,
	  "lat": 26.25607585
	},
	"fajrIqama": 0,
	"dhuhrIqama": 0,
	"asrIqama": 0,
	"maghribIqama": 0,
	"ishaIqama": 0,
	"editDate": "2024-8-1"
  },
  "LEQMARAH": {
	"arabicName": "مسجد لقمرة",
	"block": 203,
	"location": {
	  "lon": 50.61098191,
	  "lat": 26.25611432
	},
	"fajrIqama": 0,
	"dhuhrIqama": 0,
	"asrIqama": 0,
	"maghribIqama": 0,
	"ishaIqama": 0,
	"editDate": "2024-8-1"
  },
  "ALHAJ EBRAHIM HASAN KAMAL": {
	"arabicName": "مسجد الحاج إبراهيم حسن كمال",
	"block": 205,
	"location": {
	  "lon": 50.6130709,
	  "lat": 26.25772338
	},
	"fajrIqama": 0,
	"dhuhrIqama": 0,
	"asrIqama": 0,
	"maghribIqama": 0,
	"ishaIqama": 0,
	"editDate": "2024-8-1"
  },
  "AL GHAWI": {
	"arabicName": "مسجد الغاوي",
	"block": 205,
	"location": {
	  "lon": 50.61325503,
	  "lat": 26.26040405
	},
	"fajrIqama": 0,
	"dhuhrIqama": 0,
	"asrIqama": 0,
	"maghribIqama": 0,
	"ishaIqama": 0,
	"editDate": "2024-8-1"
  },
  "HUSSAIN BIN ALI EAST": {
	"arabicName": "مسجد حسين بن علي الشرقي",
	"block": 206,
	"location": {
	  "lon": 50.61628756,
	  "lat": 26.25567542
	},
	"fajrIqama": 0,
	"dhuhrIqama": 0,
	"asrIqama": 0,
	"maghribIqama": 0,
	"ishaIqama": 0,
	"editDate": "2024-8-1"
  },
  "AL DHAEN": {
	"arabicName": "مسجد الظاعن",
	"block": 208,
	"location": {
	  "lon": 50.61754106,
	  "lat": 26.25302804
	},
	"fajrIqama": 0,
	"dhuhrIqama": 0,
	"asrIqama": 0,
	"maghribIqama": 0,
	"ishaIqama": 0,
	"editDate": "2024-8-1"
  },
  "SULTAN BIN SALAMAH NORTH": {
	"arabicName": "مسجد سلطان بن سلامه الشمالي",
	"block": 208,
	"location": {
	  "lon": 50.61852798,
	  "lat": 26.25291061
	},
	"fajrIqama": 0,
	"dhuhrIqama": 0,
	"asrIqama": 0,
	"maghribIqama": 0,
	"ishaIqama": 0,
	"editDate": "2024-8-1"
  },
  "BIN NAYEM": {
	"arabicName": "مسجد بن نايم",
	"block": 209,
	"location": {
	  "lon": 50.61083781,
	  "lat": 26.25415556
	},
	"fajrIqama": 0,
	"dhuhrIqama": 0,
	"asrIqama": 0,
	"maghribIqama": 0,
	"ishaIqama": 0,
	"editDate": "2024-8-1"
  },
  "HAFSA UMM AL MOAMININ": {
	"arabicName": "مسجد حفصة أم المؤمنين",
	"block": 210,
	"location": {
	  "lon": 50.61802687,
	  "lat": 26.25580657
	},
	"fajrIqama": 0,
	"dhuhrIqama": 0,
	"asrIqama": 0,
	"maghribIqama": 0,
	"ishaIqama": 0,
	"editDate": "2024-8-1"
  },
  "AL GHURAIR": {
	"arabicName": "مسجد الغرير",
	"block": 211,
	"location": {
	  "lon": 50.61212795,
	  "lat": 26.25225393
	},
	"fajrIqama": 0,
	"dhuhrIqama": 0,
	"asrIqama": 0,
	"maghribIqama": 0,
	"ishaIqama": 0,
	"editDate": "2024-8-1"
  },
  "ALSHAIKHA BAZZEH": {
	"arabicName": "مسجد الشيخة بزة",
	"block": 212,
	"location": {
	  "lon": 50.62135623,
	  "lat": 26.25368301
	},
	"fajrIqama": 0,
	"dhuhrIqama": 0,
	"asrIqama": 0,
	"maghribIqama": 0,
	"ishaIqama": 0,
	"editDate": "2024-8-1"
  },
  "AL BANNAEEN": {
	"arabicName": "مسجد البنائين",
	"block": 213,
	"location": {
	  "lon": 50.61402609,
	  "lat": 26.24991704
	},
	"fajrIqama": 0,
	"dhuhrIqama": 0,
	"asrIqama": 0,
	"maghribIqama": 0,
	"ishaIqama": 0,
	"editDate": "2024-8-1"
  },
  "AL HANABILAH": {
	"arabicName": "مسجد الحنابله",
	"block": 213,
	"location": {
	  "lon": 50.61158713,
	  "lat": 26.2494375
	},
	"fajrIqama": 0,
	"dhuhrIqama": 0,
	"asrIqama": 0,
	"maghribIqama": 0,
	"ishaIqama": 0,
	"editDate": "2024-8-1"
  },
  "SHAIKH HAMAD GRAND": {
	"arabicName": "مسجد الشيخ حمد الكبير",
	"block": 213,
	"location": {
	  "lon": 50.61351912,
	  "lat": 26.25127757
	},
	"fajrIqama": 0,
	"dhuhrIqama": 0,
	"asrIqama": 0,
	"maghribIqama": 0,
	"ishaIqama": 0,
	"editDate": "2024-8-1"
  },
  "SHAIKH ISA BIN RASHID": {
	"arabicName": "مسجد الشيخ عيسى بن راشد",
	"block": 213,
	"location": {
	  "lon": 50.61338524,
	  "lat": 26.25052876
	},
	"fajrIqama": 0,
	"dhuhrIqama": 0,
	"asrIqama": 0,
	"maghribIqama": 0,
	"ishaIqama": 0,
	"editDate": "2024-8-1"
  },
  "BIN MISHARY NORTH": {
	"arabicName": "مسجد بن مشاري الشمالي",
	"block": 213,
	"location": {
	  "lon": 50.61230156,
	  "lat": 26.25001247
	},
	"fajrIqama": 0,
	"dhuhrIqama": 0,
	"asrIqama": 0,
	"maghribIqama": 0,
	"ishaIqama": 0,
	"editDate": "2024-8-1"
  },
  "SAEED ALBINALI TWO MINARETS": {
	"arabicName": "مسجد سعيد البنعلي ذو المنارتين",
	"block": 214,
	"location": {
	  "lon": 50.6157626,
	  "lat": 26.24915352
	},
	"fajrIqama": 0,
	"dhuhrIqama": 0,
	"asrIqama": 0,
	"maghribIqama": 0,
	"ishaIqama": 0,
	"editDate": "2024-8-1"
  },
  "AL IMAN": {
	"arabicName": "مسجد الإيمان",
	"block": 216,
	"location": {
	  "lon": 50.61462284,
	  "lat": 26.24678409
	},
	"fajrIqama": 0,
	"dhuhrIqama": 0,
	"asrIqama": 0,
	"maghribIqama": 0,
	"ishaIqama": 0,
	"editDate": "2024-8-1"
  },
  "AL MURSHED": {
	"arabicName": "مسجد المرشد",
	"block": 216,
	"location": {
	  "lon": 50.61910188,
	  "lat": 26.24481814
	},
	"fajrIqama": 0,
	"dhuhrIqama": 0,
	"asrIqama": 0,
	"maghribIqama": 0,
	"ishaIqama": 0,
	"editDate": "2024-8-1"
  },
  "AL BIN ALI": {
	"arabicName": "مسجد آل بن علي",
	"block": 216,
	"location": {
	  "lon": 50.6176601,
	  "lat": 26.24853518
	},
	"fajrIqama": 0,
	"dhuhrIqama": 0,
	"asrIqama": 0,
	"maghribIqama": 0,
	"ishaIqama": 0,
	"editDate": "2024-8-1"
  },
  "HALAT BU MAHER": {
	"arabicName": "مسجد حالة بوماهر",
	"block": 216,
	"location": {
	  "lon": 50.61512563,
	  "lat": 26.24509698
	},
	"fajrIqama": 0,
	"dhuhrIqama": 0,
	"asrIqama": 0,
	"maghribIqama": 0,
	"ishaIqama": 0,
	"editDate": "2024-8-1"
  },
  "HANAN ALI KANOO": {
	"arabicName": "مسجد حنان علي كانو",
	"block": 217,
	"location": {
	  "lon": 50.60323764,
	  "lat": 26.25289446
	},
	"fajrIqama": 0,
	"dhuhrIqama": 0,
	"asrIqama": 0,
	"maghribIqama": 0,
	"ishaIqama": 0,
	"editDate": "2024-8-1"
  },
  "YOUSIF ALI BIN MAJID FAKHRO": {
	"arabicName": "مسجد يوسف علي بن ماجد فخرو",
	"block": 221,
	"location": {
	  "lon": 50.60682542,
	  "lat": 26.26334064
	},
	"fajrIqama": 0,
	"dhuhrIqama": 0,
	"asrIqama": 0,
	"maghribIqama": 0,
	"ishaIqama": 0,
	"editDate": "2024-8-1"
  },
  "AL MUQBARAH ALSOUTHERN": {
	"arabicName": "مسجد المقبرة الجنوبي",
	"block": 450,
	"location": {
	  "lon": 50.51824266,
	  "lat": 26.22093847
	},
	"fajrIqama": 0,
	"dhuhrIqama": 0,
	"asrIqama": 0,
	"maghribIqama": 0,
	"ishaIqama": 0,
	"editDate": "2024-8-1"
  },
  "EID PRAYER FIELD": {
	"arabicName": "مصلى العيد",
	"block": 431,
	"location": {
	  "lon": 50.52919596,
	  "lat": 26.21624114
	},
	"fajrIqama": 0,
	"dhuhrIqama": 0,
	"asrIqama": 0,
	"maghribIqama": 0,
	"ishaIqama": 0,
	"editDate": "2024-8-1"
  },
  "EBRAHIM BIN MUHAMMAD AL MAHMEED": {
	"arabicName": "مسجد ابراهيم بن محمد المحميد",
	"block": 224,
	"location": {
	  "lon": 50.62244062,
	  "lat": 26.26148965
	},
	"fajrIqama": 0,
	"dhuhrIqama": 0,
	"asrIqama": 0,
	"maghribIqama": 0,
	"ishaIqama": 0,
	"editDate": "2024-8-1"
  },
  "BUSAITEEN SOUTH": {
	"arabicName": "مسجد البسيتين الجنوبي",
	"block": 227,
	"location": {
	  "lon": 50.60760963,
	  "lat": 26.26699661
	},
	"fajrIqama": 0,
	"dhuhrIqama": 0,
	"asrIqama": 0,
	"maghribIqama": 0,
	"ishaIqama": 0,
	"editDate": "2024-8-1"
  },
  "ALHAJ ALI EBRAHIM BUZABOON": {
	"arabicName": "مسجد الحاج علي ابراهيم بوزبون",
	"block": 227,
	"location": {
	  "lon": 50.6096847,
	  "lat": 26.27043101
	},
	"fajrIqama": 0,
	"dhuhrIqama": 0,
	"asrIqama": 0,
	"maghribIqama": 0,
	"ishaIqama": 0,
	"editDate": "2024-8-1"
  },
  "ABDUL ALLATIF MISHARY": {
	"arabicName": "مسجد عبداللطيف مشاري",
	"block": 227,
	"location": {
	  "lon": 50.60813373,
	  "lat": 26.27096554
	},
	"fajrIqama": 0,
	"dhuhrIqama": 0,
	"asrIqama": 0,
	"maghribIqama": 0,
	"ishaIqama": 0,
	"editDate": "2024-8-1"
  },
  "SHAIKHA BINT ABDULRAHMAN": {
	"arabicName": "جامع شيخة بنت عبدالرحمن",
	"block": 228,
	"location": {
	  "lon": 50.59753416,
	  "lat": 26.26800608
	},
	"fajrIqama": 0,
	"dhuhrIqama": 0,
	"asrIqama": 0,
	"maghribIqama": 0,
	"ishaIqama": 0,
	"editDate": "2024-8-1"
  },
  "ABDULRAHMAN AHMED ABDULMALIK": {
	"arabicName": "جامع عبدالرحمن أحمد عبدالملك",
	"block": 228,
	"location": {
	  "lon": 50.59748366,
	  "lat": 26.2703567
	},
	"fajrIqama": 0,
	"dhuhrIqama": 0,
	"asrIqama": 0,
	"maghribIqama": 0,
	"ishaIqama": 0,
	"editDate": "2024-8-1"
  },
  "HESSA BINT KHALIFA BIN ALI ALAMMARI": {
	"arabicName": "مسجد حصة بنت خليفة بن علي العماري",
	"block": 228,
	"location": {
	  "lon": 50.597968,
	  "lat": 26.2787754
	},
	"fajrIqama": 0,
	"dhuhrIqama": 0,
	"asrIqama": 0,
	"maghribIqama": 0,
	"ishaIqama": 0,
	"editDate": "2024-8-1"
  },
  "ISA ABDULLAH ISA": {
	"arabicName": "مسجد عيسى عبدالله عيسى",
	"block": 233,
	"location": {
	  "lon": 50.63013161,
	  "lat": 26.28196609
	},
	"fajrIqama": 0,
	"dhuhrIqama": 0,
	"asrIqama": 0,
	"maghribIqama": 0,
	"ishaIqama": 0,
	"editDate": "2024-8-1"
  },
  "SHAIKH RASHEED": {
	"arabicName": "مسجد الشيخ رشيد",
	"block": 235,
	"location": {
	  "lon": 50.63443903,
	  "lat": 26.28404439
	},
	"fajrIqama": 0,
	"dhuhrIqama": 0,
	"asrIqama": 0,
	"maghribIqama": 0,
	"ishaIqama": 0,
	"editDate": "2024-8-1"
  },
  "AL EMAM AL MUNTADHER": {
	"arabicName": "مسجد الإمام المنتظر",
	"block": 1215,
	"location": {
	  "lon": 50.5060545,
	  "lat": 26.06100883
	},
	"fajrIqama": 0,
	"dhuhrIqama": 0,
	"asrIqama": 0,
	"maghribIqama": 0,
	"ishaIqama": 0,
	"editDate": "2024-8-1"
  },
  "ZAIN AL ABEDEEN  - AL HAYAK": {
	"arabicName": "مسجد زين العابدين - مسجد الحياك",
	"block": 236,
	"location": {
	  "lon": 50.63650405,
	  "lat": 26.27917627
	},
	"fajrIqama": 0,
	"dhuhrIqama": 0,
	"asrIqama": 0,
	"maghribIqama": 0,
	"ishaIqama": 0,
	"editDate": "2024-8-1"
  },
  "OSAMA BIN ZAID": {
	"arabicName": "مسجد أسامة بن زيد",
	"block": 240,
	"location": {
	  "lon": 50.63132571,
	  "lat": 26.25483036
	},
	"fajrIqama": 0,
	"dhuhrIqama": 0,
	"asrIqama": 0,
	"maghribIqama": 0,
	"ishaIqama": 0,
	"editDate": "2024-8-1"
  },
  "ABDULLAH BIN OMAR": {
	"arabicName": "مسجد عبدالله بن عمر",
	"block": 240,
	"location": {
	  "lon": 50.63537396,
	  "lat": 26.25736546
	},
	"fajrIqama": 0,
	"dhuhrIqama": 0,
	"asrIqama": 0,
	"maghribIqama": 0,
	"ishaIqama": 0,
	"editDate": "2024-8-1"
  },
  "AL SHAIKH ALI ABU MUHYA": {
	"arabicName": "مسجد الشيخ علي أبو محيا",
	"block": 241,
	"location": {
	  "lon": 50.63415088,
	  "lat": 26.25185015
	},
	"fajrIqama": 0,
	"dhuhrIqama": 0,
	"asrIqama": 0,
	"maghribIqama": 0,
	"ishaIqama": 0,
	"editDate": "2024-8-1"
  },
  "AL EMAM ALI AMIR AL MOAMININ": {
	"arabicName": "جامع الإمام علي أمير المؤمنين",
	"block": 242,
	"location": {
	  "lon": 50.63096967,
	  "lat": 26.25390342
	},
	"fajrIqama": 0,
	"dhuhrIqama": 0,
	"asrIqama": 0,
	"maghribIqama": 0,
	"ishaIqama": 0,
	"editDate": "2024-8-1"
  },
  "NASSER ALHAQ": {
	"arabicName": "مسجد ناصر الحق",
	"block": 242,
	"location": {
	  "lon": 50.63182751,
	  "lat": 26.2523422
	},
	"fajrIqama": 0,
	"dhuhrIqama": 0,
	"asrIqama": 0,
	"maghribIqama": 0,
	"ishaIqama": 0,
	"editDate": "2024-8-1"
  },
  "AL EMAM AL SHAFIE": {
	"arabicName": "مسجد الإمام الشافعي",
	"block": 243,
	"location": {
	  "lon": 50.63852168,
	  "lat": 26.25868552
	},
	"fajrIqama": 0,
	"dhuhrIqama": 0,
	"asrIqama": 0,
	"maghribIqama": 0,
	"ishaIqama": 0,
	"editDate": "2024-8-1"
  },
  "AL JAMAYEA AL ISLAMIYAH": {
	"arabicName": "مسجد الجمعية الإسلامية",
	"block": 244,
	"location": {
	  "lon": 50.64495593,
	  "lat": 26.25548285
	},
	"fajrIqama": 0,
	"dhuhrIqama": 0,
	"asrIqama": 0,
	"maghribIqama": 0,
	"ishaIqama": 0,
	"editDate": "2024-8-1"
  },
  "SHAIKH MUHAMMAD BIN HAMAD BIN ABDULLAH BIN ISA AAL KHALIFA": {
	"arabicName": "مسجد الشيخ محمد بن حمد بن عبدالله بن عيسى آل خليفة",
	"block": 244,
	"location": {
	  "lon": 50.64164098,
	  "lat": 26.25423625
	},
	"fajrIqama": 0,
	"dhuhrIqama": 0,
	"asrIqama": 0,
	"maghribIqama": 0,
	"ishaIqama": 0,
	"editDate": "2024-8-1"
  },
  "KHADIJAH": {
	"arabicName": "مسجد خديجة",
	"block": 244,
	"location": {
	  "lon": 50.64978574,
	  "lat": 26.2498324
	},
	"fajrIqama": 0,
	"dhuhrIqama": 0,
	"asrIqama": 0,
	"maghribIqama": 0,
	"ishaIqama": 0,
	"editDate": "2024-8-1"
  },
  "ISA BIN MUHAMMAD AL AJLAN": {
	"arabicName": "مسجد عيسى بن محمد العجلان",
	"block": 245,
	"location": {
	  "lon": 50.63794013,
	  "lat": 26.24982056
	},
	"fajrIqama": 0,
	"dhuhrIqama": 0,
	"asrIqama": 0,
	"maghribIqama": 0,
	"ishaIqama": 0,
	"editDate": "2024-8-1"
  },
  "AL EMAM ALI BIN ABI TALEB": {
	"arabicName": "جامع الإمام علي بن أبي طالب",
	"block": 253,
	"location": {
	  "lon": 50.6536342,
	  "lat": 26.27017684
	},
	"fajrIqama": 0,
	"dhuhrIqama": 0,
	"asrIqama": 0,
	"maghribIqama": 0,
	"ishaIqama": 0,
	"editDate": "2024-8-1"
  },
  "ABI HAMED AL GHAZAALI": {
	"arabicName": "مسجد أبي حامد الغزالي",
	"block": 253,
	"location": {
	  "lon": 50.65158241,
	  "lat": 26.2708475
	},
	"fajrIqama": 0,
	"dhuhrIqama": 0,
	"asrIqama": 0,
	"maghribIqama": 0,
	"ishaIqama": 0,
	"editDate": "2024-8-1"
  },
  "RASHID AL ZAYANI": {
	"arabicName": "جامع راشد الزياني",
	"block": 254,
	"location": {
	  "lon": 50.6613193,
	  "lat": 26.27050558
	},
	"fajrIqama": 0,
	"dhuhrIqama": 0,
	"asrIqama": 0,
	"maghribIqama": 0,
	"ishaIqama": 0,
	"editDate": "2024-8-1"
  },
  "LULWAH AHMED JASSIM AL JOWDER": {
	"arabicName": "مسجد لولوه أحمد جاسم الجودر",
	"block": 254,
	"location": {
	  "lon": 50.6608688,
	  "lat": 26.26626043
	},
	"fajrIqama": 0,
	"dhuhrIqama": 0,
	"asrIqama": 0,
	"maghribIqama": 0,
	"ishaIqama": 0,
	"editDate": "2024-8-1"
  },
  "MUHAMMAD BIN SAIF BIN EBRAHIM AL MANNAI": {
	"arabicName": "مسجد محمد بن سيف بن ابراهيم المناعي",
	"block": 263,
	"location": {
	  "lon": 50.62760539,
	  "lat": 26.30960913
	},
	"fajrIqama": 0,
	"dhuhrIqama": 0,
	"asrIqama": 0,
	"maghribIqama": 0,
	"ishaIqama": 0,
	"editDate": "2024-8-1"
  },
  "AL EMAM AL HASAN AL MUJTABA  - AL HOOTA": {
	"arabicName": "مسجد الإمام الحسن المجتبى - الحوطة سابقا",
	"block": 301,
	"location": {
	  "lon": 50.57773367,
	  "lat": 26.23081868
	},
	"fajrIqama": 0,
	"dhuhrIqama": 0,
	"asrIqama": 0,
	"maghribIqama": 0,
	"ishaIqama": 0,
	"editDate": "2024-8-1"
  },
  "AL SHAIKH KHAMEES": {
	"arabicName": "مسجد الشيخ خميس",
	"block": 729,
	"location": {
	  "lon": 50.57283822,
	  "lat": 26.17009503
	},
	"fajrIqama": 0,
	"dhuhrIqama": 0,
	"asrIqama": 0,
	"maghribIqama": 0,
	"ishaIqama": 0,
	"editDate": "2024-8-1"
  },
  "BIN KHALAF": {
	"arabicName": "مسجد بن خلف",
	"block": 301,
	"location": {
	  "lon": 50.58011581,
	  "lat": 26.2288633
	},
	"fajrIqama": 0,
	"dhuhrIqama": 0,
	"asrIqama": 0,
	"maghribIqama": 0,
	"ishaIqama": 0,
	"editDate": "2024-8-1"
  },
  "ATEEQ ALI": {
	"arabicName": "مسجد عتيق علي",
	"block": 301,
	"location": {
	  "lon": 50.5812227,
	  "lat": 26.22988196
	},
	"fajrIqama": 0,
	"dhuhrIqama": 0,
	"asrIqama": 0,
	"maghribIqama": 0,
	"ishaIqama": 0,
	"editDate": "2024-8-1"
  },
  "SHAIKH AMER": {
	"arabicName": "مسجد الشيخ عامر",
	"block": 302,
	"location": {
	  "lon": 50.57638143,
	  "lat": 26.22591015
	},
	"fajrIqama": 0,
	"dhuhrIqama": 0,
	"asrIqama": 0,
	"maghribIqama": 0,
	"ishaIqama": 0,
	"editDate": "2024-8-1"
  },
  "SULTAN AL MAS": {
	"arabicName": "مسجد سلطان الماس",
	"block": 302,
	"location": {
	  "lon": 50.5765903,
	  "lat": 26.22842285
	},
	"fajrIqama": 0,
	"dhuhrIqama": 0,
	"asrIqama": 0,
	"maghribIqama": 0,
	"ishaIqama": 0,
	"editDate": "2024-8-1"
  },
  "AL SAHHAF": {
	"arabicName": "مسجد الصحاف",
	"block": 304,
	"location": {
	  "lon": 50.57731826,
	  "lat": 26.23189741
	},
	"fajrIqama": 0,
	"dhuhrIqama": 0,
	"asrIqama": 0,
	"maghribIqama": 0,
	"ishaIqama": 0,
	"editDate": "2024-8-1"
  },
  "AL GOSAIBI": {
	"arabicName": "مسجد القصيبي",
	"block": 304,
	"location": {
	  "lon": 50.58030166,
	  "lat": 26.23393259
	},
	"fajrIqama": 0,
	"dhuhrIqama": 0,
	"asrIqama": 0,
	"maghribIqama": 0,
	"ishaIqama": 0,
	"editDate": "2024-8-1"
  },
  "BIN JAMAAN": {
	"arabicName": "مسجد بن جمعان",
	"block": 304,
	"location": {
	  "lon": 50.57647547,
	  "lat": 26.23133682
	},
	"fajrIqama": 0,
	"dhuhrIqama": 0,
	"asrIqama": 0,
	"maghribIqama": 0,
	"ishaIqama": 0,
	"editDate": "2024-8-1"
  },
  "BU SARAH": {
	"arabicName": "مسجد بو ساره",
	"block": 304,
	"location": {
	  "lon": 50.57304644,
	  "lat": 26.23006957
	},
	"fajrIqama": 0,
	"dhuhrIqama": 0,
	"asrIqama": 0,
	"maghribIqama": 0,
	"ishaIqama": 0,
	"editDate": "2024-8-1"
  },
  "ZAIN AL ABEDEEN": {
	"arabicName": "مسجد زين العابدين",
	"block": 304,
	"location": {
	  "lon": 50.5797603,
	  "lat": 26.23332918
	},
	"fajrIqama": 0,
	"dhuhrIqama": 0,
	"asrIqama": 0,
	"maghribIqama": 0,
	"ishaIqama": 0,
	"editDate": "2024-8-1"
  },
  "NASER ALDIN": {
	"arabicName": "مسجد ناصر الدين",
	"block": 365,
	"location": {
	  "lon": 50.55019952,
	  "lat": 26.20550525
	},
	"fajrIqama": 0,
	"dhuhrIqama": 0,
	"asrIqama": 0,
	"maghribIqama": 0,
	"ishaIqama": 0,
	"editDate": "2024-8-1"
  },
  "AL MUQBARAH AL GHARBI": {
	"arabicName": "مسجد المقبرة الغربي",
	"block": 524,
	"location": {
	  "lon": 50.47931654,
	  "lat": 26.2292282
	},
	"fajrIqama": 0,
	"dhuhrIqama": 0,
	"asrIqama": 0,
	"maghribIqama": 0,
	"ishaIqama": 0,
	"editDate": "2024-8-1"
  },
  "AL BORHANI": {
	"arabicName": "مسجد البرهاني",
	"block": 309,
	"location": {
	  "lon": 50.58368115,
	  "lat": 26.22145088
	},
	"fajrIqama": 0,
	"dhuhrIqama": 0,
	"asrIqama": 0,
	"maghribIqama": 0,
	"ishaIqama": 0,
	"editDate": "2024-8-1"
  },
  "FATIMAH EBRAHIM AL MOAYYED": {
	"arabicName": "مسجد فاطمة إبراهيم المؤيد",
	"block": 311,
	"location": {
	  "lon": 50.57000695,
	  "lat": 26.21956087
	},
	"fajrIqama": 0,
	"dhuhrIqama": 0,
	"asrIqama": 0,
	"maghribIqama": 0,
	"ishaIqama": 0,
	"editDate": "2024-8-1"
  },
  "ABDULLAH BIN MASʻUD": {
	"arabicName": "مسجد عبدالله بن مسعود",
	"block": 312,
	"location": {
	  "lon": 50.56889133,
	  "lat": 26.2231354
	},
	"fajrIqama": 0,
	"dhuhrIqama": 0,
	"asrIqama": 0,
	"maghribIqama": 0,
	"ishaIqama": 0,
	"editDate": "2024-8-1"
  },
  "MUSALLA AL NAIM": {
	"arabicName": "مسجد مصلى النعيم",
	"block": 314,
	"location": {
	  "lon": 50.57007141,
	  "lat": 26.22624242
	},
	"fajrIqama": 0,
	"dhuhrIqama": 0,
	"asrIqama": 0,
	"maghribIqama": 0,
	"ishaIqama": 0,
	"editDate": "2024-8-1"
  },
  "AL HOORA": {
	"arabicName": "مسجد الحورة",
	"block": 318,
	"location": {
	  "lon": 50.59444569,
	  "lat": 26.23105953
	},
	"fajrIqama": 0,
	"dhuhrIqama": 0,
	"asrIqama": 0,
	"maghribIqama": 0,
	"ishaIqama": 0,
	"editDate": "2024-8-1"
  },
  "BU SHAQER": {
	"arabicName": "مسجد بو شاكر",
	"block": 318,
	"location": {
	  "lon": 50.59161348,
	  "lat": 26.23102515
	},
	"fajrIqama": 0,
	"dhuhrIqama": 0,
	"asrIqama": 0,
	"maghribIqama": 0,
	"ishaIqama": 0,
	"editDate": "2024-8-1"
  },
  "ALQUDAYBIYAH  - SHAIKH ISA": {
	"arabicName": "مسجد القضيبية - مسجد الشيخ عيسى",
	"block": 321,
	"location": {
	  "lon": 50.58840471,
	  "lat": 26.22343347
	},
	"fajrIqama": 0,
	"dhuhrIqama": 0,
	"asrIqama": 0,
	"maghribIqama": 0,
	"ishaIqama": 0,
	"editDate": "2024-8-1"
  },
  "AL THUWAWDAH": {
	"arabicName": "مسجد الذواودة",
	"block": 323,
	"location": {
	  "lon": 50.58714706,
	  "lat": 26.23463745
	},
	"fajrIqama": 0,
	"dhuhrIqama": 0,
	"asrIqama": 0,
	"maghribIqama": 0,
	"ishaIqama": 0,
	"editDate": "2024-8-1"
  },
  "AHMED AL FATEH ISLAMIC": {
	"arabicName": "مسجد أحمد الفاتح الاسلامي",
	"block": 324,
	"location": {
	  "lon": 50.59911673,
	  "lat": 26.21869046
	},
	"fajrIqama": 0,
	"dhuhrIqama": 0,
	"asrIqama": 0,
	"maghribIqama": 0,
	"ishaIqama": 0,
	"editDate": "2024-8-1"
  },
  "LULWAH MAJID KANOO": {
	"arabicName": "مسجد لولوة ماجد كانو",
	"block": 325,
	"location": {
	  "lon": 50.59583644,
	  "lat": 26.22323585
	},
	"fajrIqama": 0,
	"dhuhrIqama": 0,
	"asrIqama": 0,
	"maghribIqama": 0,
	"ishaIqama": 0,
	"editDate": "2024-8-1"
  },
  "ALADLIYAH": {
	"arabicName": "جامع العدلية",
	"block": 327,
	"location": {
	  "lon": 50.58620357,
	  "lat": 26.21287468
	},
	"fajrIqama": 0,
	"dhuhrIqama": 0,
	"asrIqama": 0,
	"maghribIqama": 0,
	"ishaIqama": 0,
	"editDate": "2024-8-1"
  },
  "ALHUDA": {
	"arabicName": "مسجد الهدى",
	"block": 329,
	"location": {
	  "lon": 50.56888811,
	  "lat": 26.21272577
	},
	"fajrIqama": 0,
	"dhuhrIqama": 0,
	"asrIqama": 0,
	"maghribIqama": 0,
	"ishaIqama": 0,
	"editDate": "2024-8-1"
  },
  "YAQOUB BIN ABDULLAH KAMAL": {
	"arabicName": "مسجد يعقوب بن عبدالله كمال",
	"block": 331,
	"location": {
	  "lon": 50.56871598,
	  "lat": 26.20747465
	},
	"fajrIqama": 0,
	"dhuhrIqama": 0,
	"asrIqama": 0,
	"maghribIqama": 0,
	"ishaIqama": 0,
	"editDate": "2024-8-1"
  },
  "AHMED BIN HANBAL": {
	"arabicName": "مسجد أحمد بن حنبل",
	"block": 332,
	"location": {
	  "lon": 50.57635232,
	  "lat": 26.20985108
	},
	"fajrIqama": 0,
	"dhuhrIqama": 0,
	"asrIqama": 0,
	"maghribIqama": 0,
	"ishaIqama": 0,
	"editDate": "2024-8-1"
  },
  "AIN UMM AL SHAOOM": {
	"arabicName": "مسجد عين أم الشعوم",
	"block": 334,
	"location": {
	  "lon": 50.58539023,
	  "lat": 26.20948464
	},
	"fajrIqama": 0,
	"dhuhrIqama": 0,
	"asrIqama": 0,
	"maghribIqama": 0,
	"ishaIqama": 0,
	"editDate": "2024-8-1"
  },
  "KHALIFA AL DABOOS": {
	"arabicName": "مسجد خليفة الدبوس",
	"block": 337,
	"location": {
	  "lon": 50.59538121,
	  "lat": 26.20265393
	},
	"fajrIqama": 0,
	"dhuhrIqama": 0,
	"asrIqama": 0,
	"maghribIqama": 0,
	"ishaIqama": 0,
	"editDate": "2024-8-1"
  },
  "AL SHAIKH ABDULRAHMAN ABDUL AL WAHAB": {
	"arabicName": "مسجد الشيخ عبدالرحمن بن عبدالوهاب",
	"block": 341,
	"location": {
	  "lon": 50.60734959,
	  "lat": 26.2093065
	},
	"fajrIqama": 0,
	"dhuhrIqama": 0,
	"asrIqama": 0,
	"maghribIqama": 0,
	"ishaIqama": 0,
	"editDate": "2024-8-1"
  },
  "AL KHUDHER": {
	"arabicName": "مسجد الخضر",
	"block": 539,
	"location": {
	  "lon": 50.46171337,
	  "lat": 26.21155118
	},
	"fajrIqama": 0,
	"dhuhrIqama": 0,
	"asrIqama": 0,
	"maghribIqama": 0,
	"ishaIqama": 0,
	"editDate": "2024-8-1"
  },
  "AL SAYED": {
	"arabicName": "مصلى السيد",
	"block": 341,
	"location": {
	  "lon": 50.60889541,
	  "lat": 26.21048664
	},
	"fajrIqama": 0,
	"dhuhrIqama": 0,
	"asrIqama": 0,
	"maghribIqama": 0,
	"ishaIqama": 0,
	"editDate": "2024-8-1"
  },
  "AL EMAM ALKADHIM": {
	"arabicName": "مسجد الإمام الكاظم",
	"block": 342,
	"location": {
	  "lon": 50.59995953,
	  "lat": 26.20575646
	},
	"fajrIqama": 0,
	"dhuhrIqama": 0,
	"asrIqama": 0,
	"maghribIqama": 0,
	"ishaIqama": 0,
	"editDate": "2024-8-1"
  },
  "MUQBARAT ABU ANBER": {
	"arabicName": "مسجد مقبرة أبو عنبرة",
	"block": 357,
	"location": {
	  "lon": 50.55168332,
	  "lat": 26.21034784
	},
	"fajrIqama": 0,
	"dhuhrIqama": 0,
	"asrIqama": 0,
	"maghribIqama": 0,
	"ishaIqama": 0,
	"editDate": "2024-8-1"
  },
  "AL SUBOOR": {
	"arabicName": "مسجد الصبور",
	"block": 359,
	"location": {
	  "lon": 50.56531873,
	  "lat": 26.21319807
	},
	"fajrIqama": 0,
	"dhuhrIqama": 0,
	"asrIqama": 0,
	"maghribIqama": 0,
	"ishaIqama": 0,
	"editDate": "2024-8-1"
  },
  "AL DARAH": {
	"arabicName": "مسجد الدره",
	"block": 361,
	"location": {
	  "lon": 50.55814217,
	  "lat": 26.20923735
	},
	"fajrIqama": 0,
	"dhuhrIqama": 0,
	"asrIqama": 0,
	"maghribIqama": 0,
	"ishaIqama": 0,
	"editDate": "2024-8-1"
  },
  "AL SAYED MUSTAFA": {
	"arabicName": "مسجد السيد مصطفى",
	"block": 361,
	"location": {
	  "lon": 50.56073717,
	  "lat": 26.21143374
	},
	"fajrIqama": 0,
	"dhuhrIqama": 0,
	"asrIqama": 0,
	"maghribIqama": 0,
	"ishaIqama": 0,
	"editDate": "2024-8-1"
  },
  "AL SIDR": {
	"arabicName": "مسجد السدر",
	"block": 362,
	"location": {
	  "lon": 50.55627847,
	  "lat": 26.20626638
	},
	"fajrIqama": 0,
	"dhuhrIqama": 0,
	"asrIqama": 0,
	"maghribIqama": 0,
	"ishaIqama": 0,
	"editDate": "2024-8-1"
  },
  "AL JABAL": {
	"arabicName": "مسجد الجبل",
	"block": 363,
	"location": {
	  "lon": 50.55697446,
	  "lat": 26.20911264
	},
	"fajrIqama": 0,
	"dhuhrIqama": 0,
	"asrIqama": 0,
	"maghribIqama": 0,
	"ishaIqama": 0,
	"editDate": "2024-8-1"
  },
  "AL ABD": {
	"arabicName": "مسجد العبد",
	"block": 363,
	"location": {
	  "lon": 50.55419275,
	  "lat": 26.20534187
	},
	"fajrIqama": 0,
	"dhuhrIqama": 0,
	"asrIqama": 0,
	"maghribIqama": 0,
	"ishaIqama": 0,
	"editDate": "2024-8-1"
  },
  "ALMAʻRIF": {
	"arabicName": "مسجد المعرف",
	"block": 363,
	"location": {
	  "lon": 50.55278888,
	  "lat": 26.20740065
	},
	"fajrIqama": 0,
	"dhuhrIqama": 0,
	"asrIqama": 0,
	"maghribIqama": 0,
	"ishaIqama": 0,
	"editDate": "2024-8-1"
  },
  "AL RAFIA ALJAMALAH": {
	"arabicName": "مسجد الرفيع - الجمالة",
	"block": 364,
	"location": {
	  "lon": 50.55271329,
	  "lat": 26.20413039
	},
	"fajrIqama": 0,
	"dhuhrIqama": 0,
	"asrIqama": 0,
	"maghribIqama": 0,
	"ishaIqama": 0,
	"editDate": "2024-8-1"
  },
  "AL ZABINIYA": {
	"arabicName": "مسجد الزبينية",
	"block": 364,
	"location": {
	  "lon": 50.55538471,
	  "lat": 26.20216157
	},
	"fajrIqama": 0,
	"dhuhrIqama": 0,
	"asrIqama": 0,
	"maghribIqama": 0,
	"ishaIqama": 0,
	"editDate": "2024-8-1"
  },